City_ID,City,Lat,Lng,Max Temp,Humidity,Cloudiness,Wind Speed,Country,Date
0,puerto ayora,-0.7393,-90.3518,22.45,65,12,5.67,EC,1730922684
1,bethel,41.3712,-73.414,26.48,56,0,7.2,US,1730922685
2,papatowai,-46.5619,169.4708,14.22,73,100,0.55,NZ,1730922686
3,olonkinbyen,70.9221,-8.7187,-2.39,82,14,20.96,SJ,1730922688
4,puquio,-14.7,-74.1333,16.69,34,20,7.74,PE,1730922689
5,grytviken,-54.2811,-36.5092,1.16,56,86,1.79,GS,1730922690
6,port elizabeth,-33.918,25.5701,13.51,87,40,1.03,ZA,1730922691
7,margaret river,-33.95,115.0667,10.93,70,7,3.53,AU,1730922692
8,st. john's,47.5649,-52.7093,10.54,95,100,7.2,CA,1730922609
9,invercargill,-46.4,168.35,12.23,92,87,0.45,NZ,1730922694
10,chinde,26.8212,87.7095,18.91,68,0,3.07,NP,1730922695
11,sanctuary point,-35.1114,150.629,20.93,67,100,1.33,AU,1730922696
12,arkhipo-osipovka,44.37,38.52,10.44,71,95,4.93,RU,1730922681
13,avarua,-21.2078,-159.775,24.03,64,100,3.6,CK,1730922700
14,jamestown,42.097,-79.2353,17.23,91,100,3.6,US,1730922701
15,port-aux-francais,-49.35,70.2167,3.19,72,44,8.8,TF,1730922702
16,belyy yar,53.6039,91.3903,-2.06,100,75,3.0,RU,1730922703
17,eruh,37.7517,42.1811,5.81,55,0,1.46,TR,1730922704
18,adamstown,-25.066,-130.1015,22.68,80,100,0.79,PN,1730922705
19,kingston,17.997,-76.7936,31.53,70,40,7.2,JM,1730922536
20,bredasdorp,-34.5322,20.0403,15.23,72,4,5.82,ZA,1730922707
21,lebu,-37.6167,-73.65,13.32,66,63,6.97,CL,1730922708
22,longyearbyen,78.2186,15.6401,-8.09,93,20,6.17,SJ,1730922709
23,anloga,5.7947,0.8973,27.7,77,4,4.03,GH,1730922710
24,yellowknife,62.456,-114.3525,0.23,98,75,3.09,CA,1730922634
25,nemuro,43.3236,145.575,4.13,95,100,5.94,JP,1730922712
26,k'olito,7.3167,38.0833,17.2,60,88,1.73,ET,1730922714
27,port moresby,-9.4431,147.1797,24.68,88,40,1.54,PG,1730922618
28,hermanus,-34.4187,19.2345,16.56,77,3,7.27,ZA,1730922716
29,lompoc,34.6391,-120.4579,22.85,45,0,4.63,US,1730922717
30,shimoda,34.6667,138.95,16.09,82,100,4.01,JP,1730922718
31,ostersund,63.1792,14.6357,5.25,84,75,3.09,SE,1730922719
32,stanley,54.868,-1.6985,12.01,90,75,1.54,GB,1730922632
33,blackmans bay,-43.0167,147.3167,10.29,65,3,0.89,AU,1730922721
34,tiksi,71.6872,128.8694,-12.66,69,100,7.51,RU,1730922619
35,vikulovo,56.8167,70.6107,-2.13,97,100,4.24,RU,1730922723
36,trinity beach,-16.7888,145.6968,22.94,78,92,0.51,AU,1730922724
37,n'zeto,-7.2312,12.8666,25.51,86,86,3.18,AO,1730922725
38,ambon,-3.6954,128.1814,26.6,95,40,3.09,ID,1730922726
39,ayora,39.0585,-1.0563,13.44,96,9,1.89,ES,1730922727
40,souillac,-20.5167,57.5167,25.21,73,75,6.17,MU,1730922728
41,kodiak,57.79,-152.4072,3.73,81,75,5.14,US,1730922730
42,san pedro pochutla,15.7333,-96.4667,29.1,71,100,2.26,MX,1730922731
43,edinburgh of the seven seas,-37.0676,-12.3116,14.79,87,13,6.52,SH,1730922732
44,antsiranana,-12.2787,49.2917,24.74,82,86,7.25,MG,1730922733
45,yukhnov,54.7444,35.2297,6.13,93,100,5.21,RU,1730922734
46,bilibino,68.0546,166.4372,-23.2,100,100,0.51,RU,1730922735
47,isafjordur,66.0755,-23.124,2.05,81,100,2.16,IS,1730922736
48,aasiaat,68.7098,-52.8699,-12.55,93,91,3.44,GL,1730922737
49,tshikapa,-6.4167,20.8,22.77,88,99,0.85,CD,1730922738
50,toliara,-23.35,43.6667,25.65,77,100,2.63,MG,1730922739
51,puerto natales,-51.7236,-72.4875,11.25,43,40,7.2,CL,1730922740
52,port lincoln,-34.7333,135.8667,14.79,83,70,7.55,AU,1730922741
53,udachny,66.4167,112.4,-9.23,95,100,2.6,RU,1730922743
54,kangding,30.0513,101.9603,8.15,93,100,0.61,CN,1730922744
55,santa cruz do capibaribe,-7.9575,-36.2047,26.07,59,48,6.71,BR,1730922745
56,vorkuta,67.5,64.0,-6.41,96,100,4.02,RU,1730922746
57,broken hill,-31.95,141.4333,17.59,50,100,7.25,AU,1730922747
58,west island,-12.1568,96.8225,26.99,83,75,7.72,CC,1730922748
59,shilovo,54.3204,40.874,-0.01,98,100,4.96,RU,1730922669
60,port mathurin,-19.6833,63.4167,24.24,76,88,10.27,MU,1730922750
61,dudinka,69.4058,86.1778,-6.28,94,100,6.89,RU,1730922751
62,colac,-38.3333,143.5833,7.68,91,1,0.29,AU,1730922752
63,forster,-32.1667,152.5167,21.61,79,100,3.13,AU,1730922753
64,qamdo,31.1667,97.2333,-1.1,71,100,1.67,CN,1730922754
65,red hill,33.9996,-79.2581,27.83,60,99,3.79,US,1730922755
66,marsh harbour,26.5412,-77.0636,26.43,84,90,10.07,BS,1730922756
67,pisco,-13.7,-76.2167,21.03,78,40,4.12,PE,1730922581
68,mocimboa,-11.3167,40.35,25.26,91,29,3.01,MZ,1730922758
69,ribeira grande,38.5167,-28.7,17.22,55,20,7.2,PT,1730922759
70,wailua homesteads,22.0669,-159.378,25.44,89,75,7.72,US,1730922761
71,galliano,29.4422,-90.2992,29.0,58,0,2.06,US,1730922762
72,sosnytsya,51.5239,32.4999,5.49,92,60,4.87,UA,1730922763
73,college,64.8569,-147.8028,-4.96,86,75,0.0,US,1730922764
74,tolanaro,-25.0319,46.9987,24.04,83,0,9.26,MG,1730922765
75,yinchuan,38.4681,106.2731,9.74,44,0,0.9,CN,1730922766
76,chandler,33.3062,-111.8412,19.9,26,0,7.72,US,1730922767
77,khandyga,62.6667,135.6,-22.45,98,99,1.39,RU,1730922768
78,port douglas,-16.4833,145.4667,24.19,75,94,3.32,AU,1730922769
79,berezovo,63.9381,65.0419,-15.18,97,40,1.15,RU,1730922770
80,nar'yan-mar,67.6713,53.087,-7.41,96,88,2.71,RU,1730922771
81,navia,43.5354,-6.7194,15.97,84,1,1.42,ES,1730922772
82,waitangi,-43.9535,-176.5597,14.9,95,83,0.45,NZ,1730922773
83,ushuaia,-54.8,-68.3,7.81,46,75,3.6,AR,1730922523
84,ancud,-41.8697,-73.8203,11.85,54,12,2.79,CL,1730922776
85,pokrovsk,48.282,37.1758,5.08,80,100,4.67,UA,1730922778
86,filadelfia,39.9523,-75.1638,27.78,56,75,7.2,US,1730922629
87,talnakh,69.4865,88.3972,-7.99,95,100,3.88,RU,1730922780
88,iqaluit,63.7506,-68.5145,-4.15,79,100,2.06,CA,1730922782
89,saipan,15.1355,145.701,24.39,94,100,3.09,MP,1730922783
90,taoudenni,22.6783,-3.9836,30.32,13,74,4.84,ML,1730922784
91,siwa oasis,29.2041,25.5195,21.96,49,100,6.69,EG,1730922785
92,jiangyou,31.7667,104.7167,15.27,85,100,0.59,CN,1730922786
93,dunedin,-45.8742,170.5036,13.86,87,15,2.24,NZ,1730922787
94,sai buri,6.7013,101.6168,24.98,85,99,1.14,TH,1730922788
95,loreto,22.2667,-101.9667,25.33,23,0,5.6,MX,1730922789
96,mach,29.8637,67.3298,23.42,20,0,3.6,PK,1730922790
97,enewetak,11.3474,162.3373,28.52,80,14,8.49,MH,1730922792
98,trancas,-26.2314,-65.2803,25.95,56,100,1.75,AR,1730922793
99,dewa,27.0333,81.1667,22.95,57,0,0.77,IN,1730922794
100,chandbali,20.7833,86.7667,23.49,83,0,1.78,IN,1730922795
101,qaqortoq,60.7167,-46.0333,-11.79,73,0,2.46,GL,1730922797
102,tire,38.0888,27.7351,11.68,44,1,3.74,TR,1730922798
103,dubrowna,54.5733,30.6906,7.14,86,100,5.23,BY,1730922799
104,brookings,44.3114,-96.7984,5.0,93,100,0.0,US,1730922800
105,luderitz,-26.6481,15.1594,14.69,71,5,0.31,NA,1730922801
106,kerikeri,-35.2268,173.9474,16.06,86,19,0.84,NZ,1730922802
107,bamboo flat,11.7,92.7167,25.05,100,100,1.03,IN,1730922803
108,argo,37.6333,22.7333,11.34,76,4,3.15,GR,1730922804
109,kavaratti,10.5669,72.642,27.93,74,5,3.13,IN,1730922805
110,bafra,41.5678,35.9069,9.28,67,81,2.18,TR,1730922806
111,iskateley,67.6803,53.1512,-7.31,96,90,2.78,RU,1730922807
112,northam,51.0333,-4.2167,12.56,95,84,4.05,GB,1730922808
113,hawaiian paradise park,19.5933,-154.9731,27.16,80,20,4.12,US,1730922810
114,susuman,62.7833,148.1667,-33.78,100,92,0.32,RU,1730922811
115,kiffa,16.6166,-11.4045,32.02,14,0,4.74,MR,1730922812
116,zapolyarnyy,69.4154,30.8136,-0.34,99,100,3.79,RU,1730922813
117,cabo san lucas,22.8909,-109.9124,24.96,59,84,4.67,MX,1730922609
118,thompson,55.7435,-97.8558,-1.91,93,100,4.63,CA,1730922815
119,sogndal,61.2283,7.1003,5.21,100,75,0.0,NO,1730922816
120,whitehorse,60.7161,-135.0538,2.43,59,75,5.14,CA,1730922593
121,mount pearl,47.5166,-52.7813,10.08,95,100,7.2,CA,1730922818
122,mersa matruh,31.3525,27.2453,22.11,73,40,5.66,EG,1730922819
123,cromwell,41.5951,-72.6454,26.15,60,20,5.66,US,1730922659
124,okakarara,-20.5833,17.4333,23.51,39,28,1.7,NA,1730922821
125,albany,42.6001,-73.9662,23.69,60,92,1.34,US,1730922621
126,brazzaville,-4.2658,15.2832,24.04,87,30,0.24,CG,1730922823
127,selfoss,63.9331,-20.9971,2.25,93,100,7.51,IS,1730922824
128,humaita,-7.5061,-63.0208,31.92,53,90,1.19,BR,1730922825
129,praia da vitoria,38.7333,-27.0667,16.14,72,20,3.61,PT,1730922826
130,hemsby,52.6971,1.6918,11.13,94,100,1.37,GB,1730922828
131,bubaque,11.2833,-15.8333,28.87,72,0,3.75,GW,1730922829
132,ulaangom,49.9811,92.0667,-3.17,93,35,0.63,MN,1730922830
133,nantucket,41.2835,-70.0995,19.06,77,0,9.77,US,1730922760
134,egilsstadir,65.2653,-14.3948,7.95,42,75,7.72,IS,1730922832
135,fuglafjordur,62.244,-6.814,8.79,98,100,9.6,FO,1730922833
136,la leonesa,-27.0379,-58.7035,31.76,55,56,1.92,AR,1730922834
137,nyahururu,0.0421,36.3673,12.21,88,95,2.85,KE,1730922835
138,sao gabriel da cachoeira,-0.1303,-67.0892,23.89,94,100,1.03,BR,1730922836
139,uturoa,-16.7333,-151.4333,27.04,77,36,2.59,PF,1730922837
140,sao joao da barra,-21.6403,-41.0511,27.05,85,0,8.37,BR,1730922838
141,utrik,11.2278,169.8474,28.49,82,100,9.51,MH,1730922839
142,ketchikan,55.3422,-131.6461,12.26,87,100,8.75,US,1730922841
143,ormara,25.2088,64.6357,27.02,79,0,5.99,PK,1730922842
144,puerto baquerizo moreno,-0.9,-89.6,24.55,88,75,5.66,EC,1730922843
145,alma,48.5501,-71.6491,5.83,81,88,3.41,CA,1730922834
146,gardabani,41.4605,45.0928,5.05,64,45,2.75,GE,1730922846
147,maturin,9.75,-63.1767,26.91,94,80,3.6,VE,1730922847
148,glace bay,46.1969,-59.957,20.09,71,100,8.34,CA,1730922848
149,chonchi,-42.6128,-73.8092,13.4,49,56,2.01,CL,1730922849
150,santa ana,33.7456,-117.8678,23.65,13,75,8.05,US,1730922850
151,keflavik,64.0049,-22.5624,3.24,87,100,10.29,IS,1730922851
152,gilleleje,56.122,12.3106,8.32,90,99,1.34,DK,1730922852
153,ilulissat,69.2167,-51.1,-5.99,63,40,4.63,GL,1730922853
154,katsuura,35.1333,140.3,15.08,77,40,6.01,JP,1730922854
155,rakops,-21.0167,24.3333,29.26,32,89,7.57,BW,1730922855
156,petropavlovsk-kamchatsky,53.0452,158.6483,-11.67,57,0,3.0,RU,1730922857
157,atafu village,-8.5421,-172.5159,27.93,76,25,3.78,TK,1730922729
158,ust-nera,64.5667,143.2,-28.73,99,62,1.57,RU,1730922859
159,vadso,70.0744,29.7487,1.09,86,75,3.09,NO,1730922860
160,anadyr,64.75,177.4833,-10.72,79,40,7.0,RU,1730922861
161,taveta,-3.3963,37.6736,22.87,75,66,2.26,KE,1730922862
162,greenville,35.6127,-77.3663,27.97,62,0,2.57,US,1730922592
163,taro,-8.3862,115.28,18.31,91,26,0.65,ID,1730922864
164,axim,4.8699,-2.2405,26.69,81,25,2.82,GH,1730922865
165,raiwind,31.2544,74.2178,21.91,35,0,2.04,PK,1730922866
166,taroa,8.7058,171.2275,28.72,79,100,10.39,MH,1730922867
167,new glasgow,45.5834,-62.6486,21.88,76,100,9.27,CA,1730922868
168,mermoz boabab,14.7065,-17.4758,27.88,74,0,0.0,SN,1730922869
169,sisimiut,66.9395,-53.6735,-10.0,78,8,5.38,GL,1730922870
170,choibalsan,48.0667,114.5,-4.72,84,98,1.04,MN,1730922871
171,sterlibashevo,53.4376,55.2578,-6.26,93,100,6.53,RU,1730922873
172,coquimbo,-29.9533,-71.3436,17.85,62,0,5.66,CL,1730922797
173,sovata,46.5833,25.0667,5.51,52,0,1.91,RO,1730922876
174,naze,28.3667,129.4833,18.51,65,79,5.26,JP,1730922877
175,machiques,10.0644,-72.545,31.69,62,75,1.93,VE,1730922878
176,lethem,3.3803,-59.7968,34.69,41,94,2.83,GY,1730922879
177,grazzanise,41.0894,14.1003,16.4,77,0,3.09,IT,1730922880
178,madang,-5.2246,145.7966,23.91,94,100,3.46,PG,1730922881
179,broome,42.2506,-75.833,22.03,66,100,6.17,US,1730922882
180,urazovo,50.0836,38.0395,6.26,94,100,5.45,RU,1730922883
181,flying fish cove,-10.4217,105.6791,25.82,88,75,4.63,CX,1730922884
182,olinda,-8.0089,-34.8553,27.85,69,75,5.66,BR,1730922885
183,tadine,-21.55,167.8833,22.78,75,17,4.52,NC,1730922886
184,punta arenas,-53.15,-70.9167,9.06,57,75,11.32,CL,1730922710
185,suva,-18.1416,178.4415,22.71,100,75,3.6,FJ,1730922889
186,kormilovka,55.0026,74.1028,-1.35,87,100,10.52,RU,1730922890
187,la sarre,48.8002,-79.1996,4.76,74,99,3.61,CA,1730922705
188,praya,14.9215,-23.5087,27.3,65,0,6.17,CV,1730922892
189,san salvador,13.6894,-89.1872,27.92,69,75,3.09,SV,1730922754
190,ilomantsi,62.6716,30.9328,0.2,99,93,2.54,FI,1730922894
191,codrington,-38.2667,141.9667,7.5,91,4,2.82,AU,1730922895
192,berezivka,47.2043,30.9078,5.56,32,0,2.57,UA,1730922896
193,las tejerias,10.2524,-67.1847,25.66,84,100,1.43,VE,1730922897
194,buka,40.8108,69.1986,6.45,82,99,0.65,UZ,1730922898
195,yarrawonga,-36.0167,146.0,13.09,81,100,4.51,AU,1730922899
196,murashi,59.3999,48.9615,-4.51,91,100,2.85,RU,1730922900
197,ploudalmezeau,48.5333,-4.65,12.21,100,7,3.09,FR,1730922648
198,gabu,12.2833,-14.2167,26.4,36,0,1.31,GW,1730922902
199,nova sintra,14.8667,-24.7167,26.94,75,100,8.01,CV,1730922903
200,tolstoy-yurt,43.4444,45.7722,6.18,56,40,0.0,RU,1730922905
201,ixtapa,20.7,-105.2,30.13,72,1,1.34,MX,1730922906
202,mejit,10.2753,170.8646,28.67,80,100,10.15,MH,1730922907
203,mata-utu,-13.2816,-176.1745,27.77,77,61,8.9,WF,1730922908
204,nova xavantina,-14.6667,-52.35,22.58,96,100,0.72,BR,1730922909
205,holualoa,19.6228,-155.9522,24.91,81,20,0.0,US,1730922910
206,boende,-0.2167,20.8667,22.5,96,100,0.93,CD,1730922911
207,huangpi,30.8845,114.3779,15.06,55,0,3.0,CN,1730922912
208,mana,5.6592,-53.7767,28.89,71,32,5.19,GF,1730922913
209,tura,25.5198,90.2201,18.14,84,0,1.7,IN,1730922914
210,ndele,8.4109,20.6473,24.04,43,5,1.8,CF,1730922915
211,vilyuysk,63.7553,121.6247,-14.68,99,100,1.77,RU,1730922916
212,paripiranga,-10.6875,-37.8617,26.86,40,51,8.41,BR,1730922917
213,usogorsk,63.4106,48.6872,-3.6,95,100,3.78,RU,1730922918
214,sitka,57.0531,-135.33,5.94,81,75,0.0,US,1730922919
215,castanos,26.7833,-101.4167,26.3,31,0,2.89,MX,1730922921
216,tazovsky,67.4667,78.7,-11.69,95,100,3.98,RU,1730922922
217,villefontaine,45.6125,5.1456,12.68,94,100,2.06,FR,1730922923
218,timbuktu,16.7735,-3.0074,28.52,14,0,4.57,ML,1730922924
219,labrador city,52.9463,-66.9114,0.1,71,75,27.72,CA,1730922925
220,kapuskasing,49.4169,-82.4331,2.05,93,100,4.12,CA,1730922926
221,yershov,51.3513,48.2766,-8.89,94,28,3.17,RU,1730922927
222,polyarnyy,69.1989,33.4478,1.54,83,100,7.53,RU,1730922928
223,cao bang,22.6667,106.25,18.59,77,68,0.94,VN,1730922929
224,luba,3.4568,8.5547,26.79,82,86,2.3,GQ,1730922931
225,dompu,-8.5356,118.4622,24.49,84,88,0.29,ID,1730922933
226,lata,40.1629,-8.3327,15.53,81,2,1.47,PT,1730922934
227,salahonda,2.1019,-78.7217,25.97,81,100,6.08,CO,1730922935
228,saudarkrokur,65.7461,-19.6394,3.27,67,100,1.24,IS,1730922936
229,island harbour,50.724,-1.2758,11.66,71,100,4.97,GB,1730922937
230,cabedelo,-6.9811,-34.8339,29.37,69,24,5.68,BR,1730922938
231,magdagachi,53.45,125.8,-17.56,98,17,0.96,RU,1730922939
232,oblivskaya,48.5362,42.5014,2.19,98,100,3.62,RU,1730922940
233,san luis de la loma,17.2706,-100.8939,29.4,69,62,2.45,MX,1730922941
234,usinsk,65.9939,57.5281,-5.29,96,100,5.13,RU,1730922942
235,sidi ifni,29.3797,-10.173,26.82,31,0,1.84,MA,1730922943
236,sanming,26.2486,117.6186,11.13,91,0,1.53,CN,1730922944
237,chernogorsk,53.8236,91.2842,-2.24,100,75,3.0,RU,1730922945
238,dingwall,57.5953,-4.4272,12.16,94,88,1.66,GB,1730922947
239,esmeraldas,-19.7625,-44.3139,22.42,81,34,3.92,BR,1730922948
240,zaragoza,41.6561,-0.8773,17.23,71,20,1.03,ES,1730922868
241,chegdomyn,51.1167,133.0167,-14.57,96,10,0.3,RU,1730922951
242,ponta delgada,37.7333,-25.6667,18.44,67,20,2.06,PT,1730922952
243,andalgala,-27.5819,-66.3165,28.71,42,1,3.08,AR,1730922953
244,hinatuan,8.3722,126.3342,24.36,94,70,1.34,PH,1730922954
245,flin flon,54.7682,-101.865,0.91,64,100,7.2,CA,1730922955
246,kununurra,-15.7667,128.7333,26.99,83,100,1.54,AU,1730922956
247,georgetown,5.4112,100.3354,25.96,82,20,1.03,MY,1730922957
248,saint-pierre,-21.3393,55.4781,23.82,78,0,2.06,RE,1730922808
249,bafata,12.1667,-14.75,26.58,40,0,1.57,GW,1730922959
250,haiku-pauwela,20.9219,-156.3051,27.01,68,20,11.18,US,1730922960
251,ouidah,6.3631,2.0851,27.06,77,32,3.19,BJ,1730922961
252,harper,4.375,-7.7169,25.73,84,2,3.7,LR,1730922963
253,zaozersk,69.4005,32.4476,0.52,87,100,6.62,RU,1730922964
254,greymouth,-42.4667,171.2,14.04,92,75,1.11,NZ,1730922965
255,sandnessjoen,66.0217,12.6316,9.06,93,75,7.72,NO,1730922771
256,hamilton,39.1834,-84.5333,20.9,90,100,3.6,US,1730922493
257,tumbes,-3.5667,-80.4414,24.97,69,75,4.12,PE,1730922968
258,tomatlan,19.9333,-105.25,31.07,59,5,3.45,MX,1730922969
259,ulladulla,-35.35,150.4667,21.32,67,100,3.83,AU,1730922970
260,west bay,19.3667,-81.4167,27.81,92,100,6.69,KY,1730922971
261,kashgar,39.4547,75.9797,12.56,43,40,2.0,CN,1730922972
262,khor,47.8861,134.9464,-8.47,77,3,3.04,RU,1730922974
263,la ronge,55.1001,-105.2842,0.14,69,100,4.63,CA,1730922975
264,leiyang,26.4024,112.8591,14.11,65,15,0.9,CN,1730922809
265,nagqu,31.5,92.0,-6.51,25,0,0.51,CN,1730922977
266,salta,-24.7859,-65.4117,25.32,67,75,4.12,AR,1730922641
267,oshawa,43.9001,-78.8496,21.71,55,0,6.69,CA,1730922692
268,tenno,39.9,139.9667,8.41,64,100,10.69,JP,1730922980
269,brak,27.5496,14.2714,18.95,43,36,2.57,LY,1730922981
270,san juan de los morros,9.9115,-67.3538,28.22,68,100,0.55,VE,1730922982
271,pont rouge,48.8833,-72.0825,6.08,74,83,4.37,CA,1730922983
272,colby,39.3958,-101.0524,3.91,93,100,7.15,US,1730922984
273,puerto deseado,-47.7503,-65.8938,9.73,46,22,7.31,AR,1730922985
274,chui,-33.6971,-53.4616,19.97,69,21,4.52,UY,1730922986
275,veraval,20.9,70.3667,27.18,63,4,1.75,IN,1730922987
276,jawhar,2.7809,45.5005,25.49,75,23,5.38,SO,1730922989
277,albesti,47.7,27.0667,5.84,40,0,0.64,RO,1730922990
278,arraial do cabo,-22.9661,-42.0278,25.98,83,0,10.29,BR,1730922991
279,agapovka,53.2973,59.1348,-2.44,83,100,5.07,RU,1730922992
280,natal,-5.795,-35.2094,28.36,69,40,7.72,BR,1730922254
281,masina,-4.3836,15.3914,22.85,91,47,0.62,CD,1730922994
282,kristiansund,63.1115,7.732,10.63,87,75,2.06,NO,1730922995
283,rionero in vulture,40.9257,15.67,8.94,94,3,0.53,IT,1730922996
284,nogliki,51.8333,143.1667,-2.73,78,98,3.86,RU,1730922997
285,port alfred,-33.5906,26.891,11.77,90,88,1.84,ZA,1730922998
286,aras-asan,8.8908,126.3033,25.17,89,64,0.59,PH,1730923000
287,palkonda,18.6,83.75,22.91,92,11,1.86,IN,1730923001
288,ola,59.5833,151.2833,-15.07,75,99,4.29,RU,1730923002
289,thunder bay,48.4001,-89.3168,10.99,50,20,3.09,CA,1730923003
290,conceicao do araguaia,-8.2578,-49.2647,31.94,54,100,1.25,BR,1730923005
291,gilford,43.5476,-71.4067,22.58,67,100,7.72,US,1730922974
292,funafuti,-8.5243,179.1942,29.0,79,75,3.6,TV,1730923007
293,revda,56.801,59.9303,-6.26,85,100,4.49,RU,1730923008
294,illizi,26.4833,8.4667,20.88,32,58,4.09,DZ,1730923009
295,ajuchitlan del progreso,18.1519,-100.4835,32.52,53,23,1.19,MX,1730923010
296,touros,-5.1989,-35.4608,26.38,70,69,6.72,BR,1730923011
297,qarqaraly,49.4058,75.4742,-4.14,63,68,14.48,KZ,1730923012
298,newman,37.3138,-121.0208,17.8,32,5,3.13,US,1730923013
299,cockburn town,21.4612,-71.1419,27.91,75,1,9.96,TC,1730923015
300,diego de almagro,-26.3667,-70.05,26.7,19,0,4.75,CL,1730923016
301,vorgashor,67.5833,63.95,-6.77,96,100,4.07,RU,1730923017
302,laguna,38.421,-121.4238,20.13,25,0,5.66,US,1730923018
303,gisborne,-38.6533,178.0042,16.32,72,85,1.58,NZ,1730923019
304,porto novo,6.4965,2.6036,28.9,75,9,2.47,BJ,1730923020
305,champerico,14.3,-91.9167,29.15,75,97,5.2,GT,1730923023
306,mossel bay,-34.1831,22.146,13.96,73,1,6.68,ZA,1730923024
307,ulsteinvik,62.3432,5.8487,12.4,82,94,0.45,NO,1730923025
308,luanda,-8.8368,13.2343,26.0,78,20,4.63,AO,1730922506
309,san antonio de pale,-1.4014,5.6325,26.17,84,100,7.06,GQ,1730923028
310,mugia,43.1041,-9.2179,15.51,91,25,2.74,ES,1730923029
311,saldanha,-33.0117,17.9442,18.03,84,0,6.34,ZA,1730923030
312,richards bay,-28.783,32.0377,18.03,74,97,3.45,ZA,1730923031
313,arteche,12.2645,125.4048,25.31,89,79,1.9,PH,1730923033
314,lihue,21.9789,-159.3672,25.77,83,75,7.72,US,1730923034
315,dalnegorsk,44.5604,135.5701,-8.73,66,0,3.57,RU,1730923035
316,stephenville,32.2207,-98.2023,23.47,39,0,5.14,US,1730923037
317,bay roberts,47.5999,-53.2648,10.08,94,100,1.79,CA,1730922967
318,mount isa,-20.7333,139.5,20.87,49,28,0.0,AU,1730923039
319,san pedro,14.35,121.0167,25.57,98,75,0.0,PH,1730923040
320,port-vila,-17.7338,168.3219,21.78,94,20,0.51,VU,1730923041
321,mocorito,25.4833,-107.9167,31.28,35,0,2.98,MX,1730923042
322,kruisfontein,-34.0033,24.7314,11.66,76,50,1.75,ZA,1730923043
323,urangan,-25.3,152.9,24.1,77,19,6.67,AU,1730923044
324,fort mcmurray,56.7268,-111.381,3.77,65,75,5.66,CA,1730923000
325,tranby,59.8167,10.25,0.95,85,9,1.56,NO,1730923046
326,bardai,11.65,7.2333,21.89,34,9,3.56,NG,1730923049
327,sambava,-14.2667,50.1667,23.82,86,31,3.4,MG,1730923050
328,banyuwangi,-8.2325,114.3576,23.66,82,62,1.17,ID,1730922942
329,road town,18.4167,-64.6167,26.02,89,40,9.26,VG,1730923054
330,wagar,16.1525,36.2032,28.11,60,0,6.62,SD,1730923055
331,lagos,6.5833,3.75,26.5,80,24,2.08,NG,1730922429
332,mulayjah,27.271,48.4242,22.9,30,64,3.74,SA,1730923057
333,svencionys,55.15,26.1667,8.47,73,100,4.55,LT,1730923058
334,badger,64.8,-147.5333,-5.36,85,75,0.0,US,1730923059
335,afaahiti,-17.75,-149.2833,25.67,82,22,3.62,PF,1730923060
336,malayer,34.2969,48.8235,10.15,32,81,1.64,IR,1730923061
337,tateyama,34.9833,139.8667,14.92,74,1,4.83,JP,1730922878
338,pitimbu,-7.4706,-34.8086,26.16,69,11,5.55,BR,1730923063
339,alofi,-19.0595,-169.9187,24.94,57,100,5.14,NU,1730923064
340,bu'aale,1.0833,42.5833,25.37,86,91,4.19,SO,1730923065
341,kashary,49.04,41.0056,2.55,98,100,3.07,RU,1730923066
342,mary,37.0,62.5,8.62,69,100,3.58,TM,1730923068
343,bibir hat,22.6873,91.7853,20.23,91,5,1.21,BD,1730923069
344,alice springs,-23.7,133.8833,22.75,73,86,3.6,AU,1730923070
345,khovd,48.0056,91.6419,1.56,67,81,0.59,MN,1730923071
346,port macquarie,-31.4333,152.9167,20.6,99,26,1.79,AU,1730923072
347,szczecinek,53.7079,16.6994,4.3,76,98,1.86,PL,1730923073
348,walterboro,32.9052,-80.6668,26.64,88,75,2.57,US,1730922909
349,chamonix-mont-blanc,45.9238,6.8693,7.33,67,8,1.62,FR,1730923076
350,south bay,26.664,-80.7162,28.42,74,100,8.66,US,1730923077
351,constantia,44.1833,28.65,2.38,52,0,1.54,RO,1730923043
352,sur,22.5667,59.5289,26.06,68,0,2.3,OM,1730923079
353,cidreira,-30.1811,-50.2056,21.91,94,87,4.67,BR,1730923080
354,yuzhno-kurilsk,44.0306,145.8556,4.36,62,100,2.64,RU,1730923081
355,pointe aux piments,-20.0628,57.5131,24.73,80,99,7.88,MU,1730923084
356,westport,41.1415,-73.3579,26.42,61,39,2.24,US,1730923085
357,tabou,4.423,-7.3528,25.76,85,3,3.36,CI,1730923087
358,new norfolk,-42.7826,147.0587,10.95,79,11,1.04,AU,1730923088
359,san patricio,28.017,-97.5169,26.88,54,0,3.5,US,1730923089
360,andergrove,-21.0833,149.1833,22.4,78,5,2.06,AU,1730923090
361,quzhou,28.9594,118.8686,9.77,79,0,3.18,CN,1730923091
362,westhausen,48.8833,10.1833,9.07,90,65,0.72,DE,1730923093
363,bloemfontein,-29.1211,26.214,16.71,19,50,1.54,ZA,1730923094
364,aykhal,66.0,111.5,-9.93,95,100,4.59,RU,1730923095
365,carutapera,-1.195,-46.02,27.55,74,100,4.0,BR,1730923097
366,goundam,16.4145,-3.6708,29.4,13,0,5.16,ML,1730923098
367,coyhaique,-45.5752,-72.0662,7.85,85,72,2.99,CL,1730923099
368,kiunga,-6.1219,141.2906,22.82,100,100,0.35,PG,1730923100
369,canico,32.6333,-16.85,21.67,87,40,1.03,PT,1730923101
370,yurty,56.0498,97.6348,-6.24,94,84,1.64,RU,1730923102
371,hilo,19.7297,-155.09,27.28,81,20,4.12,US,1730922879
372,dubbo,-32.25,148.6167,26.07,41,54,2.06,AU,1730923104
373,alotau,-10.3069,150.4462,23.96,94,86,1.51,PG,1730923107
374,saint-philippe,-21.3585,55.7679,23.1,83,37,6.23,RE,1730923108
375,walvis bay,-22.9575,14.5053,15.53,82,0,2.57,NA,1730923109
376,east london,-33.0153,27.9116,15.3,61,78,0.38,ZA,1730922876
377,sampit,-2.5333,112.95,24.5,94,99,0.97,ID,1730923111
378,perryton,36.4,-100.8027,12.96,67,100,1.54,US,1730922972
379,santa terezinha,-29.9002,-50.0904,21.66,96,98,5.05,BR,1730923113
380,nagar karnul,16.4821,78.3247,20.17,73,5,3.39,IN,1730923114
381,stuarts draft,38.0301,-79.0336,26.45,65,75,2.57,US,1730922911
382,toamasina,-18.1667,49.3833,22.0,94,40,0.0,MG,1730923116
383,steinbach,50.1667,8.5667,7.01,87,100,1.54,DE,1730923117
384,fandriana,-20.2333,47.3833,17.26,81,100,1.04,MG,1730923118
385,klyuchi,52.2667,79.1667,2.35,46,8,10.13,RU,1730923119
386,pamandzi,-12.7967,45.2794,27.88,78,75,5.14,YT,1730923120
387,kailua-kona,19.6406,-155.9956,26.98,78,20,0.45,US,1730923121
388,la'ie,21.6477,-157.9253,26.98,80,14,2.24,US,1730923122
389,san ramon,37.7799,-121.978,19.09,25,0,10.29,US,1730923124
390,tallahassee,30.4383,-84.2807,26.91,89,100,2.57,US,1730923125
391,tefe,-3.3542,-64.7114,30.06,66,20,4.63,BR,1730923127
392,gardnerville ranchos,38.8882,-119.7413,5.86,42,0,4.12,US,1730923128
393,remire-montjoly,4.9167,-52.2667,32.02,62,0,6.17,GF,1730923129
394,mount gambier,-37.8333,140.7667,6.44,98,1,2.22,AU,1730923130
395,uzgen,40.7699,73.3007,7.14,96,100,3.15,KG,1730923131
396,nuuk,64.1835,-51.7216,-8.4,72,79,5.81,GL,1730923132
397,tanumah,27.1,44.1333,21.24,45,98,6.4,SA,1730923134
398,karratha,-20.7377,116.8463,31.95,21,65,4.55,AU,1730923135
399,chincha alta,-13.4099,-76.1323,21.14,74,87,3.59,PE,1730923136
400,kamaishi,39.2667,141.8833,4.5,79,50,2.68,JP,1730923137
401,malango,-2.9627,119.9001,18.22,97,17,0.98,ID,1730923138
402,puerto rosario,-24.45,-57.0833,30.63,58,100,0.75,PY,1730923139
403,kupang,-10.1667,123.5833,26.32,94,100,1.54,ID,1730923140
404,mil'kovo,55.6078,37.7956,4.08,62,100,5.37,RU,1730923141
405,pandan,14.0453,124.1694,25.38,84,59,2.93,PH,1730923142
406,mpika,-11.8343,31.4529,22.2,48,86,0.83,ZM,1730923143
407,benjamin hill,30.1667,-111.1,22.6,19,44,6.96,MX,1730923144
408,visby,57.6409,18.296,8.12,87,100,4.63,SE,1730923145
409,achinsk,56.2694,90.4993,1.45,90,100,5.95,RU,1730923146
410,kargasok,59.0556,80.8572,-3.14,94,100,7.6,RU,1730923147
411,villa regina,-39.1,-67.0667,23.94,19,87,3.26,AR,1730923149
412,fortuna,40.5982,-124.1573,14.51,67,0,3.09,US,1730923150
413,skelleftea,64.7507,20.9528,7.2,98,0,5.66,SE,1730923151
414,tofol,5.3248,163.0078,28.68,75,97,5.75,FM,1730923152
415,baiti,13.745,-14.7482,29.94,23,0,2.14,SN,1730923155
416,micheweni,-4.9667,39.8333,26.08,88,59,2.52,TZ,1730923156
417,shakhtersk,48.0625,38.5167,4.55,85,100,4.79,UA,1730923157
418,lacombe,52.4668,-113.7353,5.74,86,79,3.47,CA,1730923158
419,labuan,5.2767,115.2417,24.2,94,40,0.0,MY,1730923160
420,vrangel',42.7297,133.0839,-1.5,44,0,4.99,RU,1730923161
421,nookat,40.2671,72.6207,5.95,96,100,0.76,KG,1730923163
422,balkanabat,39.5108,54.3671,9.52,58,7,1.94,TM,1730923165
423,kapa'a,22.0752,-159.319,26.18,87,75,7.72,US,1730923166
424,williams lake,52.1415,-122.1445,8.92,53,20,7.2,CA,1730923167
425,novaya igirma,57.1334,103.9112,-9.72,98,68,0.83,RU,1730923168
426,bhag,29.0415,67.8239,28.05,34,0,1.85,PK,1730923169
427,ghat,24.9647,10.1728,19.85,33,3,3.17,LY,1730923170
428,kitui,-1.367,38.0106,19.01,87,33,1.7,KE,1730923172
429,ginir,7.1333,40.7,14.1,69,23,1.9,ET,1730923174
430,hadibu,12.65,54.0333,26.11,76,13,2.23,YE,1730923175
431,happy valley-goose bay,53.3168,-60.3315,5.17,81,75,2.06,CA,1730923176
432,sao pedro do sul,-29.6206,-54.1789,24.73,79,82,4.64,BR,1730923177
433,jiuquan,39.7432,98.5174,9.72,23,100,3.68,CN,1730923178
434,punta del este,-34.9667,-54.95,28.06,85,0,5.36,UY,1730923179
435,khanabad,36.6825,69.1156,11.87,67,100,3.37,AF,1730923180
436,acarau,-2.8856,-40.12,26.91,75,100,7.91,BR,1730923181
437,lazaro cardenas,17.9583,-102.2,29.79,64,11,3.37,MX,1730923182
438,ugoofaaru,5.6667,73.0,27.12,77,69,0.74,MV,1730923183
439,prado,-17.3411,-39.2208,25.03,75,6,4.18,BR,1730923184
440,ladario,-19.0047,-57.6017,35.05,58,75,3.09,BR,1730923185
441,stettler,52.3168,-112.7186,2.44,69,80,5.26,CA,1730923186
442,mek'ele,13.4967,39.4753,15.94,65,0,6.15,ET,1730923187
443,singkil,-7.9855,111.4161,24.96,80,58,1.72,ID,1730923189
444,vallenar,-28.5708,-70.7581,26.89,30,0,3.78,CL,1730923191
445,carnarvon,-24.8667,113.6333,20.47,58,5,9.21,AU,1730923192
446,baise city,23.8997,106.6133,19.15,72,100,0.2,CN,1730923194
447,edd,13.9297,41.6925,30.81,52,0,6.14,ER,1730923195
448,birjand,32.8663,59.2211,14.26,33,0,3.09,IR,1730923130
449,saint-francois,46.4154,3.9054,12.45,95,20,1.54,FR,1730923197
450,vila franca do campo,37.7167,-25.4333,18.27,99,13,2.93,PT,1730923198
451,dolzhanskaya,46.6311,37.8039,10.08,58,94,7.64,RU,1730923199
452,manjeshvar,12.7,74.8833,26.66,79,10,2.17,IN,1730923201
453,natchez,31.5604,-91.4032,26.69,78,40,2.06,US,1730923202
454,isla mujeres,21.2311,-86.731,29.03,74,47,4.93,MX,1730923203
455,la passe,45.5549,-0.8967,15.1,92,7,3.87,FR,1730923204
456,iquique,-20.2208,-70.1431,18.56,70,29,1.69,CL,1730922709
457,tralee,52.2704,-9.7026,14.73,91,100,4.28,IE,1730923206
458,jianshui,23.6363,102.8264,14.44,97,100,2.0,CN,1730923208
459,columbus,39.9612,-82.9988,20.61,89,75,4.12,US,1730923208
460,fuling,29.7022,107.3919,18.51,76,100,0.63,CN,1730923210
461,la foa,-21.7108,165.8276,22.81,64,0,1.77,NC,1730923211
462,rio grande,-32.035,-52.0986,19.57,92,100,5.68,BR,1730923037
463,bizerte,37.2744,9.8739,22.0,88,40,4.63,TN,1730923213
464,perg,48.25,14.6333,7.92,92,100,1.3,AT,1730923214
465,dryden,49.7833,-92.7503,4.16,93,40,2.57,CA,1730923215
466,petropavlovka,50.6114,105.3196,-4.56,87,12,0.71,RU,1730923216
467,howard springs,-12.497,131.047,26.95,96,90,1.57,AU,1730923217
468,colares,38.7992,-9.4469,20.74,76,0,2.57,PT,1730923218
469,oamaru,-45.0784,170.9801,14.68,81,1,0.85,NZ,1730923219
470,lorengau,-2.0226,147.2712,27.3,77,100,3.07,PG,1730923220
471,colonia,50.9333,6.95,9.42,94,100,0.51,DE,1730923206
472,gamba,-2.65,10.0,25.02,90,43,2.88,GA,1730923223
473,naduvannur,11.4875,75.7759,22.84,88,83,1.52,IN,1730923225
474,hithadhoo,-0.6,73.0833,27.9,77,41,3.98,MV,1730923226
475,bandeirantes,-23.11,-50.3675,25.46,81,98,1.7,BR,1730923227
476,tazacorte,28.629,-17.9293,21.75,69,20,1.54,ES,1730923228
477,bechar,31.6167,-2.2167,22.18,30,20,2.57,DZ,1730922959
478,kulhudhuffushi,6.6221,73.07,27.79,72,94,1.34,MV,1730923230
479,gamay,12.3854,125.2979,23.83,96,99,1.55,PH,1730923231
480,midvagur,62.0511,-7.1939,9.46,100,100,8.75,FO,1730923232
481,kayangel,8.0823,134.7173,28.77,76,60,4.85,PW,1730923233
482,linqiong,30.4159,103.4609,15.82,88,100,0.43,CN,1730923235
483,guatire,10.4762,-66.5427,27.19,83,100,1.55,VE,1730923148
484,sovetskaya gavan',48.9723,140.2878,-2.82,57,100,5.91,RU,1730923237
485,capo d'orlando,38.1435,14.7305,18.78,76,5,3.57,IT,1730923238
486,sumbe,-11.2061,13.8437,25.21,84,90,4.42,AO,1730923239
487,arkhangel'sk,64.5401,40.5433,3.06,81,75,8.0,RU,1730923201
488,xam nua,20.4197,104.0439,15.54,92,98,0.98,LA,1730923241
489,hovd,48.0056,91.6419,1.56,67,81,0.59,MN,1730923071
490,chistyye bory,58.3647,41.6278,-0.55,95,100,4.01,RU,1730923243
491,sorong,-0.8833,131.25,26.33,84,99,2.42,ID,1730923245
492,beau vallon,-20.4189,57.6953,25.13,73,75,6.17,MU,1730923247
493,bayanhongor,46.7167,100.1167,-7.9,80,100,1.09,MN,1730923248
494,wamba,8.9333,8.6,24.64,42,0,1.42,NG,1730923249
495,port arthur,38.8,121.2667,4.12,55,1,4.09,CN,1730923251
496,the pas,53.8251,-101.2541,0.01,69,100,5.1,CA,1730923020
497,mhamid,29.82,-5.72,24.89,20,0,3.41,MA,1730923253
498,sinjai,-5.1241,120.253,24.37,79,88,1.55,ID,1730923254
499,gubat,12.9206,124.1231,25.88,88,90,2.86,PH,1730923255
500,abepura,-2.6333,140.5833,25.45,94,20,1.03,ID,1730923256
501,kudahuvadhoo,2.6708,72.8944,27.68,77,99,3.11,MV,1730923257
502,el calafate,-50.3408,-72.2768,9.05,49,42,5.54,AR,1730923259
503,mitu,1.1983,-70.1733,31.54,59,100,0.41,CO,1730923239
504,oodweyne,9.4092,45.064,24.7,53,85,1.8,SO,1730923262
505,maunabo,18.0072,-65.8993,28.72,92,100,4.66,PR,1730923263
506,temryuk,45.2722,37.3811,9.75,58,100,4.78,RU,1730923264
507,acapulco de juarez,16.8634,-99.8901,27.17,70,42,2.85,MX,1730923207
508,mili,6.0815,171.735,28.75,75,100,5.49,MH,1730923266
509,fale old settlement,-9.3852,-171.2468,27.96,73,25,3.62,TK,1730923267
510,singaparna,-7.3515,108.111,21.32,94,95,0.06,ID,1730923269
511,taman',45.2117,36.7161,10.78,58,100,7.52,RU,1730923270
512,portland,45.5234,-122.6762,12.79,75,40,2.24,US,1730923017
513,akniste,56.1615,25.7478,8.71,74,100,3.96,LV,1730923272
514,nadym,65.5333,72.5167,-15.34,98,14,2.24,RU,1730923273
515,melo,-32.3667,-54.1833,20.52,83,100,5.72,UY,1730923274
516,aljezur,37.3191,-8.8033,17.09,81,5,1.95,PT,1730923275
517,chicoana,-25.1009,-65.5331,24.03,66,100,0.33,AR,1730923276
518,port-cartier,50.0334,-66.8654,5.28,72,100,5.07,CA,1730923277
519,panchgani,17.9167,73.8167,18.09,60,16,2.3,IN,1730923278
520,lebanon,36.2081,-86.2911,25.46,86,40,1.54,US,1730923110
521,kundiawa,-6.0167,144.9667,15.91,98,100,0.68,PG,1730923281
522,freetown,8.484,-13.2299,26.65,76,0,1.42,SL,1730923282
523,queimadas,-10.9783,-39.6264,33.59,24,96,4.27,BR,1730923284
524,alesund,62.4723,6.1549,12.41,82,75,3.6,NO,1730923287
525,neiafu,-18.65,-173.9833,23.38,73,20,2.06,TO,1730923288
526,montepuez,-13.1256,38.9997,23.6,81,1,3.95,MZ,1730923290
527,manokwari,-0.8667,134.0833,25.87,79,100,1.83,ID,1730923291
528,severobaykal'sk,55.65,109.3167,-5.41,85,94,1.79,RU,1730923293
529,ilha solteira,-20.4328,-51.3425,28.71,63,88,2.39,BR,1730923295
530,colipapa,9.4726,122.5616,26.26,84,33,1.79,PH,1730923296
531,obo,5.3998,26.4869,21.76,65,98,0.93,CF,1730923298
532,deniliquin,-35.5333,144.9667,14.53,71,100,3.59,AU,1730923299
533,crucecita,-28.95,-58.9833,30.22,57,77,2.6,AR,1730923300
534,weno,7.4515,151.8468,28.76,71,82,2.14,FM,1730923301
535,tarsus,36.9188,34.8784,17.64,35,0,2.68,TR,1730923303
536,makassar,-5.14,119.4221,25.03,94,20,1.03,ID,1730922909
537,nova londrina,-22.7658,-52.985,27.5,71,99,2.67,BR,1730923306
538,carolina beach,34.0352,-77.8936,26.16,76,100,3.23,US,1730923307
539,embu guacu,-23.8322,-46.8114,24.1,96,99,2.39,BR,1730923308
540,harstad,68.799,16.5293,7.31,97,100,4.47,NO,1730923309
541,geraldton,-28.7667,114.6,10.23,87,1,3.09,AU,1730923310
542,angaur state,6.906,134.13,28.39,77,100,3.29,PW,1730923311
543,petoskey,45.3733,-84.9553,9.96,83,93,2.57,US,1730923229
544,xiongzhou,25.1167,114.3,12.53,71,6,0.8,CN,1730923313
545,tshabong,-26.05,22.45,21.39,15,78,4.84,BW,1730923314
546,kembe,4.6228,21.8865,21.82,71,3,1.61,CF,1730923315
547,howrah,22.5892,88.3103,26.0,78,40,0.0,IN,1730923316
548,port saint john's,-31.6229,29.5448,16.31,69,94,2.1,ZA,1730923318
549,crane,31.3974,-102.3501,24.92,22,0,4.9,US,1730923319
550,chokwe,-24.5333,32.9833,22.1,72,100,4.11,MZ,1730923320
551,khorugh,37.4897,71.553,5.55,81,100,2.01,TJ,1730923321
552,tamanrasset,22.785,5.5228,18.95,22,0,5.14,DZ,1730923322
553,hoi an,15.8794,108.335,24.98,86,45,5.76,VN,1730923323
554,quellon,-43.1167,-73.6167,10.23,62,91,2.16,CL,1730923324
555,sao jose da coroa grande,-8.8978,-35.1478,25.68,73,10,5.21,BR,1730923325
556,bageshwar,29.85,79.7667,17.31,82,61,0.67,IN,1730923327
557,bougouni,11.417,-7.479,24.59,30,0,1.59,ML,1730923328
558,colonia menno,-22.3667,-59.8167,34.12,43,25,0.92,PY,1730923329
559,hailun,47.45,126.9333,-11.68,82,0,0.72,CN,1730923330
560,pitkyaranta,61.5734,31.4792,3.1,94,23,3.35,RU,1730923331
561,dumai,1.6833,101.45,23.19,99,94,1.18,ID,1730923332
562,la rioja,42.25,-2.5,7.88,82,3,2.21,ES,1730923334
563,quinhamel,11.8833,-15.85,30.14,63,0,2.36,GW,1730923335
564,prairie du chien,43.0517,-91.1412,9.01,76,100,2.06,US,1730923336
565,brandon,27.9378,-82.2859,32.33,75,75,4.63,US,1730923337
566,san rafael,-34.6177,-68.3301,24.77,20,90,8.42,AR,1730923338
567,grand island,40.925,-98.342,10.97,65,100,5.66,US,1730923339
568,talara,-4.5772,-81.2719,24.42,64,0,5.66,PE,1730923340
569,el alto,-4.2714,-81.2147,20.22,74,99,5.71,PE,1730923341
570,diamantino,-14.4086,-56.4461,27.23,74,100,3.4,BR,1730923342
571,rantoul,40.3084,-88.1559,14.35,85,0,0.89,US,1730923344
572,trairi,-3.2778,-39.2689,26.5,76,100,5.38,BR,1730923058
573,fort bragg,35.139,-79.006,29.39,56,40,4.12,US,1730923140
574,hammerfest,70.6634,23.6821,1.25,100,75,1.54,NO,1730923348
575,tibanbang,6.6315,126.1055,27.02,81,73,1.9,PH,1730923349
576,international falls,48.6011,-93.411,7.3,72,100,2.06,US,1730923350
577,motueka,-41.1333,173.0167,16.17,89,44,0.51,NZ,1730923351
578,gadzhiyevo,69.2551,33.3362,1.35,84,100,7.58,RU,1730923352
579,chibougamau,49.9168,-74.3659,1.79,87,100,2.57,CA,1730923353
