City_ID,City,Lat,Lng,Max Temp,Humidity,Cloudiness,Wind Speed,Country,Date
0,port-aux-francais,-49.35,70.2167,4.71,88,100,9.61,TF,1730985591
1,yellowknife,62.456,-114.3525,-5.71,93,75,6.69,CA,1730985592
2,crane,31.3974,-102.3501,12.16,56,64,6.45,US,1730985593
3,pisco,-13.7,-76.2167,18.03,88,100,4.63,PE,1730985594
4,ak'ordat,15.5486,37.8867,35.46,21,0,2.99,ER,1730985595
5,zaysan,47.4667,84.8667,2.12,60,86,1.83,KZ,1730985597
6,jiwani,25.05,61.7417,27.91,75,0,6.94,PK,1730985598
7,stanley,54.868,-1.6985,9.01,93,100,3.6,GB,1730985599
8,grytviken,-54.2811,-36.5092,0.44,87,42,8.55,GS,1730985600
9,al ghayzah,16.2079,52.176,28.21,59,2,4.79,YE,1730985601
10,vila franca do campo,37.7167,-25.4333,19.23,99,8,3.55,PT,1730985602
11,portland,45.5234,-122.6762,8.25,87,0,2.68,US,1730985424
12,kristiansund,63.1115,7.732,12.85,66,0,2.06,NO,1730985604
13,guerrero negro,27.9769,-114.0611,14.43,66,0,1.26,MX,1730985605
14,conselheiro pena,-19.1722,-41.4722,25.54,72,100,1.68,BR,1730985606
15,thames,-37.1333,175.5333,12.55,95,0,0.26,NZ,1730985607
16,bredasdorp,-34.5322,20.0403,21.09,47,83,10.89,ZA,1730985608
17,isafjordur,66.0755,-23.124,10.02,71,75,9.26,IS,1730985609
18,arrifes,37.7667,-25.7,18.14,59,20,4.63,PT,1730985610
19,luganville,-15.5333,167.1667,25.07,88,100,3.03,VU,1730985611
20,blackmans bay,-43.0167,147.3167,11.52,81,84,1.23,AU,1730985613
21,adamstown,-25.066,-130.1015,21.82,87,100,5.51,PN,1730985614
22,yangambi,0.8102,24.4336,25.72,68,100,1.37,CD,1730985615
23,harper,4.375,-7.7169,28.72,66,11,1.98,LR,1730985616
24,ancud,-41.8697,-73.8203,10.12,67,100,1.55,CL,1730985352
25,edinburgh of the seven seas,-37.0676,-12.3116,14.71,89,94,3.01,SH,1730985618
26,remire-montjoly,4.9167,-52.2667,31.02,66,40,3.6,GF,1730985619
27,kodiak,57.79,-152.4072,5.73,87,100,12.35,US,1730985620
28,matola,-25.9622,32.4589,21.97,68,75,5.14,MZ,1730985621
29,petropavlovsk-kamchatsky,53.0452,158.6483,-8.67,67,0,3.0,RU,1730985622
30,carnarvon,-24.8667,113.6333,21.53,74,100,11.49,AU,1730985623
31,hamilton,39.1834,-84.5333,12.1,86,100,4.12,US,1730985432
32,soro,21.2881,86.6858,23.87,79,0,1.14,IN,1730985505
33,olonkinbyen,70.9221,-8.7187,2.27,97,100,12.05,SJ,1730985627
34,roxas,11.5853,122.7511,26.85,84,98,0.5,PH,1730985628
35,iskateley,67.6803,53.1512,-6.62,90,68,3.19,RU,1730985629
36,sitka,57.0531,-135.33,5.94,81,100,4.63,US,1730985630
37,qaqortoq,60.7167,-46.0333,-7.06,68,80,4.83,GL,1730985631
38,san antonio de pale,-1.4014,5.6325,26.09,81,92,4.16,GQ,1730985497
39,tazovsky,67.4667,78.7,-14.23,97,99,0.83,RU,1730985633
40,wailua homesteads,22.0669,-159.378,23.44,77,100,9.26,US,1730985634
41,lihue,21.9789,-159.3672,23.77,73,100,9.26,US,1730985635
42,albany,42.6001,-73.9662,14.89,70,100,1.79,US,1730985509
43,turkmenbasy,40.0222,52.9552,12.43,66,20,4.12,TM,1730985637
44,beyla,8.6833,-8.6333,29.14,30,1,2.37,GN,1730985638
45,abu tij,27.0441,31.319,29.28,29,0,4.8,EG,1730985639
46,ilulissat,69.2167,-51.1,-9.99,48,20,6.69,GL,1730985641
47,san bernardo del viento,9.3533,-75.9524,27.21,83,100,3.09,CO,1730985642
48,hithadhoo,-0.6,73.0833,28.13,77,100,5.64,MV,1730985643
49,bonnyville,54.2668,-110.735,7.76,73,28,5.47,CA,1730985644
50,altay,47.8667,88.1167,1.98,64,100,1.55,CN,1730985645
51,invercargill,-46.4,168.35,17.79,59,100,4.92,NZ,1730985646
52,lebu,-37.6167,-73.65,12.72,68,100,5.05,CL,1730985648
53,cabo san lucas,22.8909,-109.9124,23.2,50,40,4.63,MX,1730985651
54,taoudenni,22.6783,-3.9836,34.72,11,0,4.44,ML,1730985652
55,datong,40.0936,113.2914,8.94,57,76,1.88,CN,1730985653
56,puerto natales,-51.7236,-72.4875,6.25,65,100,0.0,CL,1730985654
57,tenenkou,14.4572,-4.9169,34.79,9,0,4.95,ML,1730985655
58,springfield,37.2153,-93.2982,8.25,94,100,5.36,US,1730985656
59,kirs,59.3388,52.2447,-3.85,96,96,2.86,RU,1730985657
60,callao,-12.0667,-77.15,18.73,77,100,3.09,PE,1730985649
61,zhengjiatun,43.5064,123.5064,3.82,78,19,2.21,CN,1730985659
62,enewetak,11.3474,162.3373,28.68,80,100,8.82,MH,1730985660
63,college,64.8569,-147.8028,-8.01,86,0,5.14,US,1730985661
64,tiksi,71.6872,128.8694,-15.49,92,100,2.67,RU,1730985662
65,morant bay,17.8815,-76.4093,27.69,81,98,2.54,JM,1730985663
66,aquiraz,-3.9014,-38.3911,27.05,61,96,7.45,BR,1730985664
67,aracuai,-16.8497,-42.0703,27.41,57,88,3.6,BR,1730985665
68,nikol'sk,53.7189,46.0712,-1.02,93,96,3.82,RU,1730985667
69,bilibino,68.0546,166.4372,-24.31,100,100,0.17,RU,1730985668
70,colonia,50.9333,6.95,6.13,87,100,2.06,DE,1730985669
71,salinopolis,-0.6136,-47.3561,28.92,70,96,6.67,BR,1730985670
72,sargatskoye,55.6101,73.4972,-3.77,89,100,8.73,RU,1730985671
73,afaahiti,-17.75,-149.2833,25.29,83,47,2.2,PF,1730985672
74,whitehorse,60.7161,-135.0538,-5.57,85,100,5.14,CA,1730985673
75,st. john's,47.5649,-52.7093,6.65,86,75,5.66,CA,1730985562
76,rongelap,11.1635,166.8941,28.2,80,86,8.67,MH,1730985675
77,san jose de jachal,-30.2406,-68.7469,18.48,51,96,2.8,AR,1730985676
78,werota,11.9167,37.7,24.27,48,39,2.33,ET,1730985678
79,nuku'alofa,-21.1333,-175.2,22.62,73,84,6.34,TO,1730985679
80,waitangi,-43.9535,-176.5597,13.23,88,0,2.68,NZ,1730985680
81,prado,-17.3411,-39.2208,26.22,73,54,4.87,BR,1730985408
82,bethel,41.3712,-73.414,17.59,73,0,2.57,US,1730985683
83,hawaiian paradise park,19.5933,-154.9731,21.05,98,9,0.45,US,1730985684
84,najran,17.4924,44.1277,24.62,23,5,5.67,SA,1730985473
85,arraial do cabo,-22.9661,-42.0278,28.92,61,20,10.29,BR,1730985643
86,shimanovsk,52.0,127.7,-8.74,82,100,2.17,RU,1730985687
87,nagqu,31.5,92.0,-1.45,19,0,0.42,CN,1730985688
88,nianzishan,47.5167,122.8833,-3.69,53,64,1.68,CN,1730985689
89,yamada,39.4667,141.95,2.02,77,13,2.82,JP,1730985409
90,anadyr,64.75,177.4833,-18.72,84,0,4.0,RU,1730985691
91,san ignacio de velasco,-16.3667,-60.95,25.06,80,100,1.02,BO,1730985692
92,akureyri,65.6835,-18.0878,13.96,58,75,21.61,IS,1730985693
93,mvurwi,-17.0333,30.85,29.47,27,54,6.0,ZW,1730985694
94,asmar,35.0333,71.3581,15.06,54,100,0.56,AF,1730985695
95,mitu,1.1983,-70.1733,28.28,73,55,0.67,CO,1730985696
96,port moresby,-9.4431,147.1797,24.68,88,100,4.05,PG,1730985402
97,margaret river,-33.95,115.0667,11.8,79,0,3.99,AU,1730985699
98,hermanus,-34.4187,19.2345,23.78,40,100,8.94,ZA,1730985700
99,rayon,19.1444,-99.5836,9.93,84,85,1.25,MX,1730985701
100,thompson,55.7435,-97.8558,0.09,93,100,5.14,CA,1730985702
101,at taj,24.2049,23.2857,24.32,28,0,4.41,LY,1730985703
102,flin flon,54.7682,-101.865,2.91,87,75,5.66,CA,1730985704
103,port mathurin,-19.6833,63.4167,24.0,82,6,10.33,MU,1730985705
104,lockwood,45.8191,-108.4149,1.94,52,0,8.75,US,1730985706
105,jamestown,42.097,-79.2353,10.57,87,100,4.12,US,1730985655
106,mount pearl,47.5166,-52.7813,6.19,87,75,5.66,CA,1730985501
107,port elizabeth,-33.918,25.5701,20.73,62,20,8.75,ZA,1730985710
108,georgetown,5.4112,100.3354,28.96,78,20,2.68,MY,1730985415
109,sainte-anne-des-monts,49.124,-66.4924,4.93,81,100,10.29,CA,1730985712
110,ushuaia,-54.8,-68.3,7.81,57,0,1.03,AR,1730985589
111,bang bua thong,13.9178,100.424,29.99,62,40,2.57,TH,1730985715
112,vorgashor,67.5833,63.95,-11.63,96,100,4.06,RU,1730985717
113,flying fish cove,-10.4217,105.6791,25.82,88,100,3.6,CX,1730985718
114,iqaluit,63.7506,-68.5145,-7.15,79,100,7.2,CA,1730985719
115,klaksvik,62.2266,-6.589,11.6,92,100,15.89,FO,1730985720
116,siniscola,40.5719,9.6922,20.18,62,60,2.69,IT,1730985721
117,isangel,-19.55,169.2667,23.22,83,53,4.56,VU,1730985722
118,ginir,7.1333,40.7,20.3,57,87,1.14,ET,1730985723
119,kirensk,57.7853,108.1119,-8.11,97,100,1.03,RU,1730985725
120,aykhal,66.0,111.5,-18.44,100,100,3.59,RU,1730985726
121,west island,-12.1568,96.8225,26.99,83,75,7.72,CC,1730985727
122,slave lake,55.2834,-114.769,4.99,87,75,5.14,CA,1730985728
123,rio gallegos,-51.6226,-69.2181,9.03,49,0,2.57,AR,1730985729
124,kavieng,-2.5744,150.7967,27.29,79,100,2.03,PG,1730985730
125,baharly,38.4362,57.4316,12.92,48,0,0.45,TM,1730985731
126,karatas,36.582,35.3701,22.86,40,0,4.98,TR,1730985732
127,fort mcmurray,56.7268,-111.381,4.77,81,75,7.72,CA,1730985575
128,waddan,29.1614,16.139,23.36,40,58,0.82,LY,1730985734
129,jayapura,-2.5333,140.7,25.66,86,96,1.35,ID,1730985735
130,saint-pierre,-21.3393,55.4781,25.82,73,0,11.83,RE,1730985456
131,keflavik,64.0049,-22.5624,6.24,87,75,12.86,IS,1730985737
132,kruisfontein,-34.0033,24.7314,19.35,52,71,8.59,ZA,1730985739
133,charlestown,-32.95,151.6667,22.6,96,100,1.34,AU,1730985740
134,southside,33.9245,-86.0225,21.61,94,100,2.57,US,1730985741
135,tual,-5.6667,132.75,28.87,73,4,3.51,ID,1730985742
136,homer,59.6425,-151.5483,5.94,79,100,8.75,US,1730985743
137,thinadhoo,0.5333,72.9333,28.68,74,100,5.69,MV,1730985680
138,east london,-33.0153,27.9116,20.52,56,40,4.63,ZA,1730985745
139,fort st. john,56.2499,-120.8529,1.94,80,75,0.0,CA,1730985746
140,ust-nera,64.5667,143.2,-30.45,99,58,0.88,RU,1730985747
141,port saint john's,-31.6229,29.5448,18.83,67,100,3.65,ZA,1730985748
142,longyearbyen,78.2186,15.6401,-2.09,69,75,7.2,SJ,1730985749
143,alotau,-10.3069,150.4462,24.09,95,100,1.46,PG,1730985750
144,idri,27.5,13.2667,24.59,25,94,2.8,LY,1730985751
145,lazaro cardenas,17.9583,-102.2,23.73,83,100,2.1,MX,1730985752
146,lompoc,34.6391,-120.4579,3.23,75,0,3.6,US,1730985753
147,rio grande,-32.035,-52.0986,20.17,97,100,6.43,BR,1730985754
148,rikaze,29.25,88.8833,6.68,27,0,0.72,CN,1730985756
149,coquimbo,-29.9533,-71.3436,13.85,94,100,4.63,CL,1730985155
150,smithers,54.7804,-127.1743,6.18,100,100,2.06,CA,1730985758
151,chonchi,-42.6128,-73.8092,9.51,86,100,1.55,CL,1730985759
152,gazipasa,36.2694,32.3179,24.05,33,0,4.12,TR,1730985572
153,camocim,-2.9022,-40.8411,30.9,57,55,6.42,BR,1730985761
154,cacheu,12.2706,-16.1658,35.07,27,0,2.18,GW,1730985762
155,bel ombre,-4.6167,55.4167,28.91,70,40,2.57,SC,1730985763
156,dudinka,69.4058,86.1778,-13.88,97,96,2.41,RU,1730985764
157,franklin,39.9667,-83.0166,10.02,89,75,4.12,US,1730985559
158,romorantin-lanthenay,47.4167,1.8333,12.81,94,100,3.6,FR,1730985766
159,imbituba,-28.24,-48.6703,22.53,93,100,3.86,BR,1730985767
160,bizerte,37.2744,9.8739,24.53,58,87,3.76,TN,1730985583
161,salym,60.0625,71.4789,-5.61,91,100,5.11,RU,1730985769
162,korla,41.7597,86.1469,13.23,41,19,2.57,CN,1730985770
163,la ronge,55.1001,-105.2842,9.14,66,75,12.35,CA,1730985771
164,frederico westphalen,-27.3592,-53.3944,26.98,66,88,1.31,BR,1730985773
165,happy valley-goose bay,53.3168,-60.3315,4.17,70,75,2.06,CA,1730985686
166,coahuayana de hidalgo,18.7,-103.6583,23.42,90,97,1.02,MX,1730985775
167,ribeira grande,38.5167,-28.7,19.32,68,40,10.28,PT,1730985776
168,kyaukse,21.6,96.1333,22.0,88,75,0.0,MM,1730985777
169,howard springs,-12.497,131.047,29.95,80,100,2.28,AU,1730985778
170,kingston,17.997,-76.7936,27.53,83,75,3.6,JM,1730985650
171,fale old settlement,-9.3852,-171.2468,28.38,73,12,3.3,TK,1730985780
172,shimoda,34.6667,138.95,14.81,67,54,4.88,JP,1730985781
173,kapa'a,22.0752,-159.319,24.18,76,100,9.26,US,1730985782
174,avarua,-21.2078,-159.775,20.03,83,75,1.03,CK,1730985783
175,oltinko'l,40.8011,72.1634,9.36,64,100,2.23,UZ,1730985785
176,wad medani,14.4012,33.5199,36.72,21,3,3.91,SD,1730985786
177,puerto aysen,-45.4,-72.7,6.97,96,100,1.67,CL,1730985787
178,waat,51.1454,6.4958,12.56,54,0,2.45,DE,1730985788
179,udachny,66.4167,112.4,-21.15,100,19,2.29,RU,1730985789
180,bikenibeu village,1.3673,173.1241,27.98,78,40,4.63,KI,1730985790
181,hami,42.8,93.45,11.85,35,100,0.67,CN,1730985791
182,utrik,11.2278,169.8474,28.17,79,100,9.82,MH,1730985792
183,tolanaro,-25.0319,46.9987,30.04,58,20,8.23,MG,1730985793
184,liman,48.9884,37.8023,10.43,65,92,4.9,UA,1730985795
185,klyuchi,52.2667,79.1667,-0.06,47,100,12.04,RU,1730985796
186,hiratacho,35.4333,132.8167,8.98,87,75,4.12,JP,1730985797
187,talnakh,69.4865,88.3972,-10.87,96,100,2.51,RU,1730985798
188,saint-joseph,-21.3667,55.6167,25.21,77,40,5.23,RE,1730985799
189,bafq,31.6128,55.4107,24.52,24,89,5.61,IR,1730985801
190,oodweyne,9.4092,45.064,29.21,32,48,3.86,SO,1730985802
191,puerto ayora,-0.7393,-90.3518,20.74,76,100,2.07,EC,1730985803
192,labrador city,52.9463,-66.9114,-0.46,83,100,27.72,CA,1730985804
193,jalai nur,49.45,117.7,-3.97,53,12,0.33,CN,1730985805
194,kailua-kona,19.6406,-155.9956,23.98,64,0,3.6,US,1730985806
195,fort bragg,35.139,-79.006,21.91,94,40,1.54,US,1730985807
196,nuuk,64.1835,-51.7216,-6.66,58,75,1.03,GL,1730985808
197,san patricio,28.017,-97.5169,23.97,92,0,4.4,US,1730985809
198,sao joao da barra,-21.6403,-41.0511,29.05,79,80,9.1,BR,1730985811
199,bam,29.106,58.357,26.97,18,0,4.98,IR,1730985812
200,thunder bay,48.4001,-89.3168,3.99,75,75,7.2,CA,1730985813
201,mejit,10.2753,170.8646,28.1,78,99,12.53,MH,1730985814
202,nar'yan-mar,67.6713,53.087,-6.71,90,63,3.2,RU,1730985815
203,nizhnesortymskiy,62.4397,71.7603,-10.15,93,100,5.31,RU,1730985817
204,port alfred,-33.5906,26.891,21.21,62,35,2.68,ZA,1730985818
205,spirit lake,43.4222,-95.1022,1.06,71,0,0.89,US,1730985819
206,manokwari,-0.8667,134.0833,26.79,82,95,1.72,ID,1730985820
207,itarantim,-15.6597,-40.0656,27.8,59,45,2.12,BR,1730985821
208,murun-kuren,49.6342,100.1625,3.13,69,100,0.37,MN,1730985822
209,quelimane,-17.8786,36.8883,30.97,70,40,4.63,MZ,1730985823
210,hammerfest,70.6634,23.6821,6.25,81,75,6.69,NO,1730985824
211,weatherford,32.7593,-97.7972,16.16,83,100,1.34,US,1730985825
212,yuzhno-sukhokumsk,44.6581,45.6436,12.76,47,21,8.18,RU,1730985827
213,gadzhiyevo,69.2551,33.3362,4.32,86,75,12.35,RU,1730985828
214,linda,39.1277,-121.5508,8.98,62,0,2.57,US,1730985829
215,buka,40.8108,69.1986,8.31,46,98,2.09,UZ,1730985830
216,kismayo,-0.3582,42.5454,28.67,65,4,5.59,SO,1730985831
217,torres,-29.3353,-49.7269,22.88,90,100,1.28,BR,1730985832
218,papatowai,-46.5619,169.4708,18.28,53,100,3.41,NZ,1730985833
219,vetlanda,57.4289,15.0776,10.13,71,3,1.51,SE,1730985834
220,sovetskiy,61.3614,63.5842,-10.36,95,79,2.53,RU,1730985835
221,linxia chengguanzhen,35.6003,103.2064,10.55,43,1,2.4,CN,1730985836
222,hadibu,12.65,54.0333,27.32,79,100,3.68,YE,1730985837
223,sao sebastiao,-23.76,-45.4097,25.5,73,100,2.18,BR,1730985838
224,selfoss,63.9331,-20.9971,7.25,86,100,10.1,IS,1730985839
225,tongchuanshi,35.0806,109.0897,11.56,68,90,1.09,CN,1730985840
226,gourdon,44.75,1.5,18.55,60,5,3.18,FR,1730985841
227,mamuju,-2.6748,118.8885,26.57,85,100,1.4,ID,1730985842
228,yunyang,33.4474,112.7142,16.73,46,100,1.05,CN,1730985844
229,caluula,11.9661,50.7569,27.67,68,11,4.35,SO,1730985845
230,charters towers,-20.1,146.2667,21.67,63,0,4.15,AU,1730985846
231,cafayate,-26.073,-65.9761,20.15,66,16,3.01,AR,1730985847
232,port blair,11.6667,92.75,27.02,83,40,1.03,IN,1730985848
233,yeed,4.55,43.0333,34.23,31,93,6.16,SO,1730985849
234,bunda,-2.05,33.8667,29.24,38,67,0.72,TZ,1730985850
235,cangucu,-31.395,-52.6756,18.17,99,100,4.11,BR,1730985851
236,masina,-4.3836,15.3914,32.51,51,70,1.9,CD,1730985852
237,kosh-agach,50.0,88.6667,-4.4,54,89,0.56,RU,1730985854
238,oeiras,-7.0253,-42.1311,36.14,27,95,3.4,BR,1730985855
239,cape canaveral,28.4058,-80.6048,27.27,87,75,6.17,US,1730985856
240,badger,64.8,-147.5333,-9.44,92,0,0.45,US,1730985858
241,bowen,-20.0167,148.2333,24.48,76,0,3.2,AU,1730985859
242,tonkino,57.3726,46.4629,0.41,87,100,3.31,RU,1730985860
243,huarmey,-10.0681,-78.1522,19.11,86,100,2.78,PE,1730985861
244,chernyshevsk,52.5243,117.0174,-12.18,95,12,0.54,RU,1730985862
245,vadso,70.0744,29.7487,4.09,87,20,7.72,NO,1730985863
246,gemona,46.2794,13.1431,16.4,43,31,1.43,IT,1730985864
247,baise city,23.8997,106.6133,20.11,68,62,0.06,CN,1730985865
248,lagos,6.5833,3.75,34.04,45,89,1.66,NG,1730985739
249,taulaga,-11.0553,-171.0883,27.78,75,1,1.27,AS,1730985867
250,semnan,35.5729,53.3971,16.96,38,100,0.7,IR,1730985868
251,constantia,44.1833,28.65,14.38,23,4,0.39,RO,1730985855
252,tura,25.5198,90.2201,20.57,95,0,1.55,IN,1730985872
253,hailin,44.5833,129.4167,-6.37,84,18,0.64,CN,1730985873
254,beloyarskiy,63.7119,66.6722,-11.99,97,51,1.92,RU,1730985874
255,vilyuchinsk,52.9306,158.4028,-7.85,77,100,3.22,RU,1730985875
256,malaya vishera,58.8454,32.2222,5.72,96,100,2.73,RU,1730985876
257,bechem,7.0903,-2.025,32.88,32,100,1.88,GH,1730985877
258,moyynkum,44.2914,72.9469,4.11,52,100,4.79,KZ,1730985878
259,kapuskasing,49.4169,-82.4331,1.05,100,100,4.63,CA,1730985722
260,mount isa,-20.7333,139.5,27.87,42,7,1.54,AU,1730985881
261,galle,6.0367,80.217,27.71,79,37,6.43,LK,1730985882
262,pobugskoye,48.1658,30.5927,13.07,21,0,3.09,UA,1730985883
263,uruzgan,32.8333,66.0,19.69,18,100,2.68,AF,1730985885
264,palangkaraya,-2.2,113.8333,24.75,95,100,1.05,ID,1730985678
265,pavuluru,15.8529,80.1647,26.01,81,46,1.76,IN,1730985887
266,puerto escondido,15.85,-97.0667,27.46,83,20,2.57,MX,1730985889
267,al jawf,29.5,38.75,23.97,42,0,5.98,SA,1730985890
268,vilhena,-12.7406,-60.1458,23.12,94,75,4.12,BR,1730985892
269,leh,34.1667,77.5833,6.24,17,0,2.47,IN,1730985893
270,puerto armuelles,8.2833,-82.8667,23.94,92,100,1.79,PA,1730985894
271,taesal-li,36.9714,126.4542,12.37,40,0,3.09,KR,1730985895
272,sisimiut,66.9395,-53.6735,-10.22,71,100,5.06,GL,1730985714
273,trairi,-3.2778,-39.2689,29.77,56,38,7.23,BR,1730985819
274,katsuura,35.1333,140.3,14.98,60,100,3.75,JP,1730985898
275,salahonda,2.1019,-78.7217,25.32,85,100,5.74,CO,1730985899
276,mbanza-ngungu,-5.25,14.8667,29.26,57,81,1.44,CD,1730985900
277,las heras,-46.5419,-68.9359,11.49,35,100,6.89,AR,1730985902
278,luderitz,-26.6481,15.1594,20.22,56,93,3.63,NA,1730985903
279,concepcion,-36.827,-73.0498,12.89,82,0,4.63,CL,1730985670
280,benguela,-12.5763,13.4055,27.41,69,68,4.35,AO,1730985906
281,tionk essil,12.7856,-16.5217,34.39,29,0,2.79,SN,1730985907
282,queenstown,-31.8976,26.8753,19.56,38,100,5.53,ZA,1730985908
283,new norfolk,-42.7826,147.0587,12.18,97,15,0.93,AU,1730985909
284,kone,-21.0595,164.8658,20.7,81,0,2.11,NC,1730985910
285,ad dabbah,18.05,30.95,32.24,17,0,6.11,SD,1730985911
286,san luis de la loma,17.2706,-100.8939,24.83,81,59,2.02,MX,1730985912
287,gudari,19.35,83.7833,24.86,71,19,0.69,IN,1730985913
288,horta,38.5333,-28.6333,18.9,77,40,10.28,PT,1730985914
289,rayachoti,14.05,78.75,25.8,70,100,2.48,IN,1730985627
290,pimentel,-6.8367,-79.9342,19.16,82,100,5.66,PE,1730985916
291,yazoo city,32.8551,-90.4056,21.21,97,17,2.14,US,1730985917
292,la gi,10.6667,107.7833,26.4,83,99,5.71,VN,1730985918
293,rozdilna,46.8433,30.0792,13.24,18,0,2.14,UA,1730985919
294,suva,-18.1416,178.4415,24.71,73,75,3.6,FJ,1730985920
295,huntingburg,38.2989,-86.955,12.45,100,100,3.6,US,1730985921
296,kashgar,39.4547,75.9797,15.56,33,40,1.0,CN,1730985923
297,ribadesella,43.4614,-5.0596,19.78,69,1,1.1,ES,1730985924
298,grande prairie,55.1667,-118.8027,8.1,71,100,2.06,CA,1730985925
299,tamandare,-8.7597,-35.1047,28.85,53,44,4.95,BR,1730985926
300,la passe,45.5549,-0.8967,19.58,64,0,4.14,FR,1730985927
301,hancheng,32.5186,112.3522,18.04,46,99,2.4,CN,1730985928
302,pokachi,61.7198,75.3683,-6.12,94,100,4.96,RU,1730985929
303,turochak,52.2576,87.1224,1.92,46,100,7.02,RU,1730985931
304,new ulm,44.3125,-94.4605,1.26,95,0,2.06,US,1730985658
305,punta arenas,-53.15,-70.9167,9.06,53,0,4.63,CL,1730985933
306,arafat,39.0344,44.6198,4.47,40,0,1.44,IR,1730985934
307,dryden,49.7833,-92.7503,1.16,80,75,5.66,CA,1730985909
308,mount gambier,-37.8333,140.7667,12.08,69,100,4.15,AU,1730985937
309,komsomolets,53.7453,62.0708,-7.45,87,79,3.1,KZ,1730985938
310,bonthe,7.5264,-12.505,31.25,57,0,3.87,SL,1730985939
311,saldanha,-33.0117,17.9442,19.94,57,100,6.54,ZA,1730985940
312,zeya,53.75,127.2667,-10.75,90,100,0.62,RU,1730985941
313,revda,56.801,59.9303,-7.79,88,98,4.54,RU,1730985942
314,nemuro,43.3236,145.575,5.02,68,41,6.04,JP,1730985943
315,gurupi,-11.7292,-49.0686,26.45,72,100,2.59,BR,1730985669
316,urengoy,65.9667,78.3667,-19.35,100,80,3.01,RU,1730985945
317,luena,-11.7833,19.9167,24.25,57,93,2.77,AO,1730985946
318,ronne,55.1009,14.7066,8.95,93,75,2.06,DK,1730985948
319,ciudad lazaro cardenas,17.9583,-102.2,23.73,83,100,2.1,MX,1730985951
320,ariquemes,-9.9133,-63.0408,23.3,96,100,0.6,BR,1730985801
321,oamaru,-45.0784,170.9801,17.43,57,100,4.11,NZ,1730985953
322,panama city beach,30.1766,-85.8055,24.07,98,100,3.09,US,1730985804
323,kerikeri,-35.2268,173.9474,15.51,89,28,1.13,NZ,1730985955
324,kingaroy,-26.5333,151.8333,23.17,65,100,2.27,AU,1730985956
325,rouissat,31.9243,5.3502,28.04,26,40,6.17,DZ,1730985957
326,alofi,-19.0595,-169.9187,15.94,94,20,0.51,NU,1730985958
327,nungwi,-5.7265,39.2987,27.86,73,3,5.85,TZ,1730985959
328,dakhla,23.6848,-15.958,26.01,65,0,2.06,EH,1730985960
329,coromandel,-18.4733,-47.2003,23.19,75,100,4.46,BR,1730985822
330,cockburn town,21.4612,-71.1419,27.81,69,9,9.47,TC,1730985964
331,rio preto da eva,-2.6994,-59.6997,32.64,51,24,1.01,BR,1730985965
332,dwarka,22.2394,68.9678,29.17,62,0,5.33,IN,1730985966
333,touros,-5.1989,-35.4608,29.81,55,92,6.63,BR,1730985967
334,labytnangi,66.6572,66.4183,-14.11,91,10,2.62,RU,1730985968
335,seosan,36.7817,126.4522,7.79,52,0,1.5,KR,1730985969
336,dunedin,-45.8742,170.5036,14.89,83,100,0.89,NZ,1730985970
337,tupaciguara,-18.5922,-48.705,19.16,96,100,2.58,BR,1730985971
338,bernburg,51.8,11.7333,6.55,80,100,1.66,DE,1730985972
339,salinas,36.6777,-121.6555,14.48,35,0,3.6,US,1730985973
340,praia da vitoria,38.7333,-27.0667,20.14,56,20,6.91,PT,1730985974
341,igarka,67.4667,86.5833,-15.63,93,58,2.96,RU,1730985976
342,blackwater,-23.5833,148.8833,23.72,100,0,4.93,AU,1730985977
343,sovetskaya gavan',48.9723,140.2878,-4.51,46,0,5.74,RU,1730985978
344,swords,53.4597,-6.2181,16.19,85,75,4.12,IE,1730985979
345,glace bay,46.1969,-59.957,7.3,74,75,3.58,CA,1730985980
346,khao wong,16.7001,104.0902,23.0,73,23,5.12,TH,1730985981
347,pecan plantation,32.3604,-97.6756,17.29,86,100,0.89,US,1730985982
348,amos,48.5669,-78.1162,1.46,86,100,2.67,CA,1730985983
349,vila velha,-20.3297,-40.2925,26.08,84,75,5.81,BR,1730985743
350,taunggyi,20.7833,97.0333,13.8,97,100,1.05,MM,1730985985
351,mesyagutovo,55.5303,58.2528,-7.2,88,100,4.64,RU,1730985986
352,hovd,48.0056,91.6419,5.04,70,100,2.65,MN,1730985987
353,sarandi del yi,-33.35,-55.6333,20.98,57,98,7.83,UY,1730985988
354,luninyets,52.2472,26.8047,8.23,53,100,3.05,BY,1730985989
355,antofagasta,-23.65,-70.4,18.6,74,38,2.64,CL,1730985954
356,merizo village,13.2658,144.6691,26.66,89,100,6.72,GU,1730985991
357,codrington,-38.2667,141.9667,13.57,53,100,7.52,AU,1730985993
358,ilomantsi,62.6716,30.9328,1.82,97,100,3.2,FI,1730985994
359,dul'durga,50.6761,113.5931,-1.91,71,3,0.83,RU,1730985995
360,sao jose da coroa grande,-8.8978,-35.1478,28.65,54,16,5.08,BR,1730985997
361,nova sintra,14.8667,-24.7167,26.38,76,100,5.63,CV,1730985998
362,uturoa,-16.7333,-151.4333,26.92,78,74,1.74,PF,1730985999
363,palau,7.503,134.621,26.98,89,75,0.0,PW,1730986000
364,deyang,31.1302,104.382,17.68,80,100,1.8,CN,1730986001
365,brigantine,39.4101,-74.3646,19.52,93,100,0.0,US,1730986003
366,mach,29.8637,67.3298,26.19,15,0,2.11,PK,1730986004
367,mitsamiouli,-11.3847,43.2844,27.9,72,5,4.32,KM,1730986006
368,plain city,41.298,-112.0861,-0.45,70,0,2.9,US,1730986007
369,port lincoln,-34.7333,135.8667,14.91,62,57,8.51,AU,1730986008
370,mugia,43.1041,-9.2179,22.73,76,100,3.17,ES,1730986009
371,bosa,40.2993,8.4983,20.61,55,29,1.33,IT,1730986010
372,humaita,-7.5061,-63.0208,25.02,91,100,1.21,BR,1730986011
373,camrose,53.0168,-112.8353,4.39,71,0,3.34,CA,1730986012
374,lata,40.1629,-8.3327,25.27,51,65,3.08,PT,1730986013
375,atafu village,-8.5421,-172.5159,28.61,70,6,5.09,TK,1730986014
376,rehoboth,-23.3167,17.0833,34.85,14,93,3.75,NA,1730986015
377,mora,11.0461,14.1401,33.81,20,2,4.66,CM,1730986016
378,salmon arm,50.6998,-119.3024,4.62,81,2,1.03,CA,1730986017
379,port douglas,-16.4833,145.4667,24.08,78,10,3.19,AU,1730986018
380,ola,59.5833,151.2833,-11.92,93,100,4.58,RU,1730986019
381,malango,-2.9627,119.9001,19.81,99,57,0.97,ID,1730986020
382,mutuali,-14.8706,37.0044,34.31,28,8,3.22,MZ,1730986021
383,narvik,68.4384,17.4272,7.67,98,100,4.94,NO,1730986023
384,fuerte olimpo,-21.0415,-57.8738,29.14,67,93,1.83,PY,1730986024
385,mossel bay,-34.1831,22.146,19.96,68,71,9.91,ZA,1730986025
386,villa ocampo,-28.4875,-59.3551,25.66,72,61,5.04,AR,1730986026
387,greymouth,-42.4667,171.2,14.28,99,100,4.22,NZ,1730986027
388,cururupu,-1.8283,-44.8683,30.4,57,100,3.52,BR,1730986028
389,garhi khairo,28.0606,67.9803,33.06,19,0,2.95,PK,1730986029
390,yuzawa,39.1667,140.5,4.74,87,100,3.7,JP,1730986031
391,bay roberts,47.5999,-53.2648,6.14,87,29,3.13,CA,1730986032
392,mao,39.8885,4.2658,20.31,77,20,3.6,ES,1730986033
393,uberaba,-19.7483,-47.9319,23.32,88,100,4.12,BR,1730985742
394,midland,31.9974,-102.0779,15.11,64,100,4.12,US,1730985828
395,barcelos,41.5388,-8.6151,22.58,53,100,1.75,PT,1730985997
396,gurjaani,41.7429,45.8011,10.26,36,0,2.07,GE,1730986037
397,ridgecrest,35.6225,-117.6709,4.8,24,0,2.06,US,1730986038
398,cleveland,41.4995,-81.6954,12.71,82,75,5.14,US,1730985911
399,pyhajarvi,67.0701,27.2176,4.13,83,70,3.71,FI,1730986041
400,plyeshchanitsy,54.4222,27.8331,7.86,77,100,3.51,BY,1730986042
401,bermeo,43.4209,-2.7215,23.11,62,1,2.78,ES,1730986043
402,tarrafal de sao nicolau,16.5667,-24.3667,24.95,78,60,3.32,CV,1730986044
403,trinidad,-14.8333,-64.9,25.99,89,40,1.54,BO,1730986045
404,quellon,-43.1167,-73.6167,8.26,87,100,3.27,CL,1730986046
405,westerland,54.9079,8.3033,11.01,87,100,2.57,DE,1730986047
406,tostado,-29.232,-61.7692,26.1,60,7,0.89,AR,1730986048
407,sirte,31.2089,16.5887,23.12,53,83,5.87,LY,1730986049
408,khabarovsk,48.4808,135.0928,-6.11,58,0,6.0,RU,1730985798
409,haiku-pauwela,20.9219,-156.3051,23.01,76,20,8.49,US,1730986051
410,mata-utu,-13.2816,-176.1745,26.9,78,100,8.2,WF,1730986052
411,guamal,9.1433,-74.2238,25.31,95,100,1.56,CO,1730986053
412,langepas,61.2544,75.2124,-5.03,94,100,3.93,RU,1730985833
413,evans,33.5337,-82.1307,21.11,97,100,3.09,US,1730985998
414,yaren,-0.5472,166.916,28.57,75,100,5.77,NR,1730986057
415,al bayda',32.7627,21.7551,17.98,52,74,6.24,LY,1730986058
416,neryungri,56.6709,124.6491,-16.96,96,32,1.44,RU,1730986059
417,isiro,2.7739,27.616,27.05,70,58,1.32,CD,1730986060
418,hulyaypole,47.6653,36.2578,12.39,54,7,4.24,UA,1730986061
419,kiama,-34.6833,150.8667,18.1,87,86,1.34,AU,1730986062
420,lanxi,29.2195,119.477,12.07,77,95,1.95,CN,1730986063
421,kandahar,31.0,65.75,21.68,21,6,4.69,AF,1730986064
422,monrovia,6.3005,-10.7969,29.91,59,1,3.39,LR,1730986065
423,mar del plata,-38.0023,-57.5575,14.97,63,0,9.26,AR,1730985620
424,traverse city,44.7631,-85.6206,6.86,94,0,2.9,US,1730986067
425,saynshand,44.8824,110.1163,4.47,50,100,1.33,MN,1730986068
426,wotje,9.4543,170.2367,27.77,79,100,7.28,MH,1730986069
427,geraldton,-28.7667,114.6,18.23,77,100,6.17,AU,1730986070
428,cestos city,5.46,-9.5828,29.43,63,6,4.35,LR,1730986072
429,hotan,37.0997,79.9269,13.94,22,0,2.08,CN,1730986073
430,grand baie,-20.0182,57.5802,26.91,75,62,2.24,MU,1730986074
431,maceio,-9.6658,-35.7353,30.69,54,75,6.17,BR,1730985670
432,ouesso,1.6136,16.0517,32.72,46,64,2.3,CG,1730986076
433,sabzevar,36.2126,57.6819,16.6,36,20,5.14,IR,1730986077
434,lubuklinggau,-3.3,102.8667,22.9,97,85,1.5,ID,1730986078
435,nantucket,41.2835,-70.0995,17.86,82,20,2.57,US,1730986079
436,warren,39.4334,-84.1666,10.61,90,20,5.14,US,1730985781
437,levuka,50.1834,-105.4011,1.85,80,20,8.75,CA,1730986081
438,aur,8.1499,171.1687,24.82,93,100,3.55,MH,1730986082
439,tsiombe,-25.3,45.4833,30.87,46,47,5.94,MG,1730986083
440,nikolayevsk-on-amure,53.1406,140.73,-9.47,79,8,2.03,RU,1730986084
441,sochi,43.6,39.7303,12.05,66,100,0.34,RU,1730986085
442,yeppoon,-23.1333,150.7333,21.85,84,0,4.41,AU,1730986087
443,newman,37.3138,-121.0208,7.25,51,0,0.83,US,1730986031
444,aldan,58.6031,125.3894,-12.06,91,100,2.94,RU,1730986090
445,copiapo,-27.3667,-70.3333,21.92,47,2,2.52,CL,1730985876
446,chivhu,-19.0211,30.8922,28.49,29,97,5.48,ZW,1730986092
447,kiunga,-6.1219,141.2906,23.16,99,100,1.17,PG,1730985800
448,kittila,67.6647,24.8936,5.08,70,0,2.57,FI,1730986094
449,kimbe,-5.5502,150.1429,24.25,95,100,1.52,PG,1730986095
450,mundri,-6.9558,111.71,29.1,65,100,2.72,ID,1730986096
451,aasiaat,68.7098,-52.8699,-17.46,96,60,3.22,GL,1730986097
452,vernon,50.2581,-119.2691,3.74,77,2,1.54,CA,1730986098
453,manacapuru,-3.2997,-60.6206,29.36,64,100,1.2,BR,1730986099
454,chany,55.3121,76.7647,-3.91,91,100,10.92,RU,1730986100
455,padra,22.2333,73.0833,29.05,51,5,1.03,IN,1730986101
456,ghadamis,30.1337,9.5007,26.02,25,100,1.39,LY,1730986103
457,suchiapa,16.6167,-93.0833,22.18,100,75,0.0,MX,1730986104
458,watford city,47.8022,-103.2832,-3.08,93,32,5.14,US,1730986105
459,chicoana,-25.1009,-65.5331,23.03,63,9,3.02,AR,1730986106
460,zhangatas,43.5667,69.75,3.85,48,100,6.79,KZ,1730986107
461,nadur,36.0378,14.2942,21.99,71,46,4.3,MT,1730986108
462,gorontalo,0.5412,123.0595,24.8,95,95,0.83,ID,1730986109
463,prince rupert,54.3161,-130.3201,12.05,88,100,13.89,CA,1730986110
464,llerena,38.2354,-6.0739,20.24,52,93,4.65,ES,1730986111
465,tralee,52.2704,-9.7026,14.14,94,100,4.63,IE,1730986112
466,bakanas,44.8081,76.2772,4.51,39,100,5.24,KZ,1730986113
467,khovd,48.0056,91.6419,5.04,70,100,2.65,MN,1730986114
468,quesnel,52.9999,-122.5029,6.28,65,75,5.14,CA,1730986115
469,howrah,22.5892,88.3103,29.0,70,20,2.57,IN,1730986116
470,puerto baquerizo moreno,-0.9,-89.6,21.55,88,75,4.63,EC,1730986117
471,nampula,-15.1165,39.2666,27.97,61,75,8.75,MZ,1730986119
472,grand gaube,-20.0064,57.6608,25.77,75,39,2.24,MU,1730986120
473,motueka,-41.1333,173.0167,15.05,95,21,0.68,NZ,1730986121
474,darwin,-12.4611,130.8418,29.99,74,20,4.63,AU,1730986066
475,susuman,62.7833,148.1667,-33.75,100,96,0.38,RU,1730986123
476,churapcha,62.0025,132.4325,-18.11,98,100,0.58,RU,1730986124
477,mariental,-24.6333,17.9667,37.86,10,11,3.67,NA,1730986125
478,chibougamau,49.9168,-74.3659,-1.21,93,100,3.6,CA,1730986126
479,saipan,15.1355,145.701,28.39,86,20,6.69,MP,1730986127
480,orhei,47.3831,28.8231,13.03,19,0,0.68,MD,1730986128
481,mmabatho,-25.85,25.6333,32.98,27,20,8.75,ZA,1730986129
482,ghanzi,-21.5667,21.7833,32.82,24,100,4.69,BW,1730986130
483,beau vallon,-20.4189,57.6953,26.13,69,40,5.14,MU,1730986131
484,fada,7.25,4.0667,33.37,40,40,2.57,NG,1730986132
485,broken hill,-31.95,141.4333,17.25,59,0,3.31,AU,1730986068
486,port-vila,-17.7338,168.3219,22.78,94,20,1.03,VU,1730986135
487,ambovombe,-25.1667,46.0833,27.17,62,7,5.38,MG,1730986136
488,punta del este,-34.9667,-54.95,22.06,87,75,6.69,UY,1730986137
489,sinop,41.7711,34.8709,10.07,60,0,1.77,TR,1730986138
490,usinsk,65.9939,57.5281,-8.22,96,99,4.44,RU,1730986139
491,salto,-31.3833,-57.9667,26.6,64,75,4.02,UY,1730986129
492,severo-yeniseyskiy,60.3725,93.0408,-3.84,89,85,5.8,RU,1730986142
493,ebon,4.582,168.6964,28.62,72,100,5.74,MH,1730986143
494,mikuni,36.2171,136.1519,10.84,59,100,6.99,JP,1730986145
495,sorong,-0.8833,131.25,28.32,73,99,0.16,ID,1730986146
496,raja,8.4596,25.678,34.95,23,2,3.25,SS,1730985923
497,chokwe,-24.5333,32.9833,23.11,74,100,4.92,MZ,1730986148
498,katsuren-haebaru,26.3369,127.8719,23.38,89,100,6.69,JP,1730986149
499,cannonvale,-20.2833,148.7,23.66,80,0,2.5,AU,1730986151
500,berbera,10.4396,45.0143,29.82,62,20,6.51,SO,1730986152
501,holualoa,19.6228,-155.9522,21.91,82,0,3.6,US,1730986153
502,miri,4.4148,114.0089,27.08,94,40,0.0,MY,1730985949
503,grand falls-windsor,48.9332,-55.6649,2.42,78,98,4.83,CA,1730986155
504,novoukrayinka,48.3264,31.5285,12.38,26,0,3.36,UA,1730986156
505,brisas de zicatela,15.8369,-97.0419,27.29,83,20,2.57,MX,1730986158
506,nova vicosa,-17.8919,-39.3719,26.0,75,100,4.7,BR,1730986159
507,minas de marcona,-15.2119,-75.1103,14.27,76,68,5.38,PE,1730986160
508,grajewo,53.6473,22.4554,7.27,51,48,2.01,PL,1730986161
509,xai-xai,-25.0519,33.6442,22.62,82,100,5.01,MZ,1730986162
510,camarinas,43.1311,-9.1817,22.74,74,97,2.85,ES,1730986163
511,koster,-25.863,26.8976,28.53,28,98,7.7,ZA,1730986164
512,ixtapa,20.7,-105.2,22.57,94,40,1.54,MX,1730986165
513,tarawa,1.419,172.984,28.05,78,40,4.63,KI,1730986166
514,galliano,29.4422,-90.2992,25.0,94,100,1.54,US,1730986167
515,kapit,2.0167,112.9333,23.73,98,100,1.05,MY,1730986168
516,dera ghazi khan,30.0561,70.6348,29.87,23,0,2.46,PK,1730986169
517,northam,51.0333,-4.2167,16.45,82,30,7.42,GB,1730986170
518,ilhabela,-23.7781,-45.3581,26.13,79,100,2.71,BR,1730986172
519,thandla,23.0,74.5667,27.98,33,4,3.09,IN,1730986174
520,sinabang,2.4803,96.3801,27.54,74,83,0.94,ID,1730986175
521,arkhangel'sk,64.5401,40.5433,1.06,100,100,2.0,RU,1730986176
522,sakakah,29.9697,40.2064,16.76,49,59,6.93,SA,1730986177
523,vilyuysk,63.7553,121.6247,-10.39,97,95,2.74,RU,1730986178
524,wum,6.3833,10.0667,25.6,64,100,0.92,CM,1730986179
525,puducherry,11.9333,79.8167,27.19,79,100,6.5,IN,1730986180
526,riyadh,24.6877,46.7219,29.88,20,0,3.62,SA,1730985620
527,maintirano,-18.0667,44.0167,28.82,68,8,6.15,MG,1730986183
528,yuzhno-kurilsk,44.0306,145.8556,2.41,94,100,5.09,RU,1730986184
529,salalah,17.0151,54.0924,29.05,65,0,3.09,OM,1730986137
530,swift current,50.2834,-107.8014,2.45,75,0,8.23,CA,1730986078
531,acarau,-2.8856,-40.12,30.31,58,15,8.86,BR,1730985912
532,shenjiamen,29.9576,122.298,17.47,71,98,5.25,CN,1730986189
533,timizart,36.8,4.2667,26.71,30,92,1.12,DZ,1730986190
534,covasna,45.85,26.1833,11.76,30,0,1.39,RO,1730986191
535,dolores,-36.3132,-57.6792,17.49,52,0,7.01,AR,1730986096
536,papao,-17.75,-149.55,25.82,82,61,2.19,PF,1730986193
537,chu,43.5983,73.7614,4.3,49,100,1.17,KZ,1730986194
538,corumba,-19.0092,-57.6533,26.84,89,75,1.54,BR,1730986195
539,tieli,46.95,128.05,-8.96,84,13,1.71,CN,1730986196
540,oxapampa,-10.5775,-75.4017,19.67,74,98,0.53,PE,1730986197
541,polyarnyy,69.1989,33.4478,4.21,86,78,12.37,RU,1730986115
542,newcastle west,52.4492,-9.0611,13.62,89,100,5.29,IE,1730986199
543,ciudad guayana,8.3533,-62.6528,34.17,46,99,0.55,VE,1730986200
544,santiago,-33.4569,-70.6483,22.45,44,0,1.54,CL,1730985683
545,isyangulovo,52.1909,52.1909,-4.98,96,100,3.05,RU,1730986203
546,muhos,64.808,25.9931,5.55,89,100,4.53,FI,1730986204
547,antipino,57.1068,65.7576,-6.84,75,100,5.74,RU,1730986205
548,vol'sk,52.0333,47.3833,-0.35,85,63,3.82,RU,1730986206
549,toliara,-23.35,43.6667,26.58,72,25,8.85,MG,1730986207
550,garachico,28.7781,-17.7646,22.49,73,0,3.09,ES,1730986208
551,kariong,-33.44,151.3011,19.81,99,100,1.5,AU,1730986209
552,pyongyang,39.0339,125.7543,6.47,44,4,1.05,KP,1730986210
553,ghat,24.9647,10.1728,23.99,19,2,3.98,LY,1730986211
554,kenai,60.5544,-151.2583,3.9,85,75,7.2,US,1730986212
555,ponta delgada,37.7333,-25.6667,19.4,59,20,4.63,PT,1730986214
556,brookings,44.3114,-96.7984,-2.19,97,0,3.09,US,1730985969
557,bandarbeyla,9.4942,50.8122,27.24,71,4,5.91,SO,1730986216
558,bocaiuva,-17.1078,-43.815,24.61,68,97,1.05,BR,1730986217
559,sao vicente,-23.9631,-46.3919,24.43,35,100,0.51,BR,1730986218
560,ta`u,-14.2336,-169.5144,26.34,84,38,7.47,AS,1730986219
561,clinton,42.587,-82.9199,9.94,77,40,2.57,US,1730985946
562,kununurra,-15.7667,128.7333,29.99,54,62,4.12,AU,1730986221
563,sulphur,30.2366,-93.3774,22.98,97,100,3.09,US,1730986163
564,mitchell,43.7094,-98.0298,-2.69,94,0,3.09,US,1730986223
565,hasaki,35.7333,140.8333,13.27,56,100,6.36,JP,1730986224
566,la punta,-33.1837,-66.3127,24.25,36,96,1.39,AR,1730986225
567,shubarshi,48.5872,57.1869,-3.75,88,100,2.08,KZ,1730986226
568,ban nong wua so,17.2675,103.2247,22.58,72,3,4.67,TH,1730986227
569,mount darwin,-16.7725,31.5838,29.83,35,74,4.2,ZW,1730986228
